Address,Type,Datetime,Latitude,Longitude
1333 Harbor Ave Sw,Illegal Burn,2025 Dec 31 11:59:00 PM,47.591918,-122.382656
101 Taylor Ave N,Auto Fire Alarm,2025 Dec 31 11:27:00 PM,47.618566,-122.346316
12517 33rd Ave Ne,Illegal Burn,2025 Dec 31 11:19:00 PM,47.719378,-122.292729
2021 7th Ave,Auto Fire Alarm,2025 Dec 31 11:11:00 PM,47.615345,-122.337941
2551 Thorndyke Ave W,Auto Fire Alarm,2025 Dec 31 11:04:00 PM,47.642154,-122.385152
Bagley Ave N / East Green Lake Dr N,Rubbish Fire,2025 Dec 31 10:55:00 PM,47.682628,-122.331584
Nb I5 At Convention Center,Car Fire Freeway,2025 Dec 31 10:04:00 PM,47.60875,-122.330754
3310 Ne 125th St,Auto Fire Alarm,2025 Dec 31 09:52:00 PM,47.719264,-122.292632
1240 NE 120TH ST,Auto Fire Alarm,2025 Dec 31 09:48:00 PM,47.715806,-122.315013
1240 Ne 127th St,Auto Fire Alarm,2025 Dec 31 09:32:00 PM,47.72124,-122.31503
110 Boren Ave N,Auto Fire Alarm,2025 Dec 31 09:06:00 PM,47.618632,-122.335875
S Henderson St / Martin Luther King Jr Way S,Illegal Burn,2025 Dec 31 08:43:00 PM,47.523246,-122.279209
1400 BOREN AVE,Dumpster Fire,2025 Dec 31 07:15:00 PM,47.612472,-122.328005
7930 Rainier Ave S,Auto Fire Alarm,2025 Dec 31 07:12:00 PM,47.530717,-122.269989
12th Ave S / S King St,Illegal Burn,2025 Dec 31 06:49:00 PM,47.598338,-122.317228
1001 E James Way,Auto Fire Alarm,2025 Dec 31 06:29:00 PM,47.607834,-122.319302
1920 4th Ave,Auto Fire Alarm,2025 Dec 31 06:25:00 PM,47.612443,-122.338984
GOLF DR S / S CHARLES ST,Rubbish Fire,2025 Dec 31 05:43:00 PM,47.594282,-122.316577
1020 Ne 63rd St,Rubbish Fire,2025 Dec 31 05:35:00 PM,47.674157,-122.317191
6th Ave S / S Spokane St,Illegal Burn,2025 Dec 31 05:13:00 PM,47.571408,-122.325986
305 HARRISON ST,Auto Fire Alarm,2025 Dec 31 05:04:00 PM,47.622089,-122.351371
705 Pike St,Auto Fire Alarm,2025 Dec 31 05:03:00 PM,47.61163,-122.333297
300 11TH AVE,Auto Fire Alarm,2025 Dec 31 04:53:00 PM,47.604358,-122.318105
22nd Ave S / S Jackson St,Rubbish Fire,2025 Dec 31 04:51:00 PM,47.599275,-122.303285
8408 Aurora Ave N,Illegal Burn,2025 Dec 31 04:48:00 PM,47.689888,-122.344518
300 11th Ave,Auto Fire Alarm,2025 Dec 31 04:33:00 PM,47.604358,-122.318105
5th Ave S / S King St,Rubbish Fire,2025 Dec 31 04:24:00 PM,47.598356,-122.327671
6901 MARTIN LUTHER KING JR WAY S,Auto Fire Alarm,2025 Dec 31 04:07:00 PM,47.540684,-122.283048
21st Ave E / E Thomas St,Illegal Burn,2025 Dec 31 03:55:00 PM,47.621388,-122.304719
Sb I5 To Albro,Fire Response Freeway,2025 Dec 31 03:18:00 PM,47.551689,-122.317047
NB I5 AT 75,Car Fire Freeway,2025 Dec 31 02:20:00 PM,47.682803,-122.321332
Golf Dr S / S Charles St,Illegal Burn,2025 Dec 31 12:27:00 PM,47.594282,-122.316577
509 1st Ave W,Auto Fire Alarm,2025 Dec 31 12:10:00 PM,47.623378,-122.358024
2020 S Jackson St,Auto Fire Alarm,2025 Dec 31 12:01:00 PM,47.599261,-122.305296
107 Pine St,Rubbish Fire,2025 Dec 31 11:26:00 AM,47.609848,-122.340842
851 12th Ave,Auto Fire Alarm,2025 Dec 31 10:09:00 AM,47.609823,-122.316779
621 S Jackson St,Auto Fire Alarm,2025 Dec 31 10:01:00 AM,47.599192,-122.32579
421 Belmont Ave E,Auto Fire Alarm,2025 Dec 31 09:43:00 AM,47.622225,-122.324025
2727 W Manor Pl,Auto Fire Alarm,2025 Dec 31 09:25:00 AM,47.652955,-122.391732
421 Belmont Ave E,Auto Fire Alarm,2025 Dec 31 09:05:00 AM,47.622225,-122.324025
136 22nd Ave E,Auto Fire Alarm,2025 Dec 31 07:25:00 AM,47.618773,-122.303644
2010 22ND AVE S,Rubbish Fire,2025 Dec 31 07:09:00 AM,47.585398,-122.304238
201 Yesler Way,Illegal Burn,2025 Dec 31 05:10:00 AM,47.601719,-122.331966
136 22nd Ave E,Auto Fire Alarm,2025 Dec 31 04:34:00 AM,47.618773,-122.303644
937 N 96th St,Auto Fire Alarm,2025 Dec 31 01:00:00 AM,47.698721,-122.34681
2336 25th Ave S,Illegal Burn,2025 Dec 31 12:52:00 AM,47.582626,-122.300345
E Olive Way / E Denny Way,Rubbish Fire,2025 Dec 31 12:23:00 AM,47.618489,-122.325633
3621 33rd Ave S,Auto Fire Alarm,2025 Dec 30 11:41:00 PM,47.571408,-122.291001
1821 Boren Ave,Auto Fire Alarm,2025 Dec 30 11:29:00 PM,47.616329,-122.331683
600 N 130th St,Auto Fire Alarm,2025 Dec 30 11:06:00 PM,47.723223,-122.351624
1000 8th Ave,Auto Fire Alarm,2025 Dec 30 10:08:00 PM,47.607945,-122.328471
4540 8th Ave Ne,Auto Fire Alarm,2025 Dec 30 09:09:00 PM,47.66167,-122.319564
1815 12th Ave,Auto Fire Alarm,2025 Dec 30 08:59:00 PM,47.617768,-122.316894
1301 6th Ave,Auto Fire Alarm,2025 Dec 30 08:44:00 PM,47.60916,-122.33264
1815 12th Ave,Auto Fire Alarm,2025 Dec 30 08:42:00 PM,47.617768,-122.316894
4548 20th Ave Ne,Auto Fire Alarm,2025 Dec 30 08:42:00 PM,47.661689,-122.306525
1815 Terry Ave,Auto Fire Alarm,2025 Dec 30 08:40:00 PM,47.615602,-122.332488
N 143rd St / Greenwood Ave N,Car Fire,2025 Dec 30 07:29:00 PM,47.732314,-122.355567
255 S King St,Auto Fire Alarm,2025 Dec 30 06:53:00 PM,47.598287,-122.330894
1415 22nd Ave,Auto Fire Alarm,2025 Dec 30 06:51:00 PM,47.613102,-122.303631
1144 Sturgus Ave S,Illegal Burn,2025 Dec 30 06:23:00 PM,47.592768,-122.31327
526 1st Ave S,Auto Fire Alarm,2025 Dec 30 05:58:00 PM,47.597475,-122.334191
925 Seneca St,Auto Fire Alarm,2025 Dec 30 03:50:00 PM,47.609955,-122.328383
1911 22nd Ave S,Auto Fire Alarm,2025 Dec 30 03:41:00 PM,47.586234,-122.304237
20th Ave S / S Holgate St,Rubbish Fire,2025 Dec 30 03:32:00 PM,47.586339,-122.306839
Nb I5 To Columbian,Car Fire Freeway,2025 Dec 30 02:48:00 PM,47.569155,-122.319826
431 Boylston Ave E,Auto Fire Alarm,2025 Dec 30 02:41:00 PM,47.622348,-122.32307
3501 Sw Avalon Way,Rubbish Fire,2025 Dec 30 02:14:00 PM,47.564075,-122.376191
1594 Alki Ave Sw,Auto Fire Alarm,2025 Dec 30 02:04:00 PM,47.589138,-122.394549
7930 Rainier Ave S,Auto Fire Alarm,2025 Dec 30 02:02:00 PM,47.530717,-122.269989
4602 14th Ave Nw,Auto Fire Alarm,2025 Dec 30 01:31:00 PM,47.662209,-122.373595
415 6th Ave,Rubbish Fire,2025 Dec 30 01:30:00 PM,47.603396,-122.327378
1311 S Massachusetts St,Auto Fire Alarm,2025 Dec 30 01:10:00 PM,47.588437,-122.315855
4918 17th Ave Nw,Illegal Burn,2025 Dec 30 12:57:00 PM,47.664512,-122.37889
3327 Beacon Ave S,Auto Fire Alarm,2025 Dec 30 12:41:00 PM,47.573784,-122.308819
1315 Ne Campus Pkwy,Auto Fire Alarm,2025 Dec 30 11:13:00 AM,47.655998,-122.31426
1936 Eastlake Ave E,Auto Fire Alarm,2025 Dec 30 11:08:00 AM,47.636192,-122.325698
521 Stadium Pl S,Auto Fire Alarm,2025 Dec 30 10:21:00 AM,47.597968,-122.331585
660 W Ewing St,Auto Fire Alarm,2025 Dec 30 09:32:00 AM,47.652523,-122.365122
3430 Rainier Ave S,Rubbish Fire,2025 Dec 30 09:32:00 AM,47.572606,-122.293767
5th Ave / Olive Way,Rubbish Fire,2025 Dec 30 09:07:00 AM,47.612665,-122.337394
14th Ave Nw / Nw 45th St,RV Fire,2025 Dec 30 08:21:00 AM,47.661473,-122.373598
12th Ave S / S Charles St,Rubbish Fire,2025 Dec 30 08:17:00 AM,47.593834,-122.317281
3000 S Estelle St,Rubbish Fire,2025 Dec 30 08:05:00 AM,47.571895,-122.293225
1101 Madison St,Auto Fire Alarm,2025 Dec 30 08:02:00 AM,47.609343,-122.325128
900 University St,Auto Fire Alarm,2025 Dec 30 07:08:00 AM,47.61055,-122.329318
10th Ave S / S Jackson St,Rubbish Fire,2025 Dec 30 06:42:00 AM,47.599184,-122.319639
2700 Rainier Ave S,Illegal Burn,2025 Dec 30 06:35:00 AM,47.579214,-122.29881
12th Ave E / E John St,Rubbish Fire,2025 Dec 30 06:34:00 AM,47.619937,-122.316928
1st Ave / Pike St,Illegal Burn,2025 Dec 30 06:32:00 AM,47.608821,-122.340013
1145 Broadway,Rubbish Fire,2025 Dec 30 06:11:00 AM,47.611511,-122.32076
4th Ave / Pine St,Rubbish Fire,2025 Dec 30 04:43:00 AM,47.611207,-122.337592
12517 33rd Ave Ne,Illegal Burn,2025 Dec 30 01:49:00 AM,47.719378,-122.292729
5043 Brooklyn Ave Ne,Auto Fire Alarm,2025 Dec 30 01:43:00 AM,47.665234,-122.314205
6th Ave / Marion St,Illegal Burn,2025 Dec 30 12:26:00 AM,47.606302,-122.330039
Elliott Ave W / W Galer St,Rubbish Fire,2025 Dec 29 11:56:00 PM,47.632252,-122.375652
4337 15th Ave Ne,Auto Fire Alarm,2025 Dec 29 11:51:00 PM,47.66005,-122.312025
705 E REPUBLICAN ST,Illegal Burn,2025 Dec 29 11:33:00 PM,47.623136,-122.323004
3621 33rd Ave S,Auto Fire Alarm,2025 Dec 29 11:32:00 PM,47.571408,-122.291001
200 Summit Ave E,Illegal Burn,2025 Dec 29 11:31:00 PM,47.619651,-122.325294
15th Ave Nw / Nw Market St,Illegal Burn,2025 Dec 29 11:13:00 PM,47.668667,-122.376214
850 Nw 45th St,Illegal Burn,2025 Dec 29 09:33:00 PM,47.661465,-122.367159
4733 California Ave Sw,Rubbish Fire,2025 Dec 29 09:24:00 PM,47.560506,-122.386796
6901 Martin Luther King Jr Way S,Auto Fire Alarm,2025 Dec 29 09:02:00 PM,47.540684,-122.283048
412 25th Ave S,Auto Fire Alarm,2025 Dec 29 08:52:00 PM,47.599125,-122.299888
Beacon Ave S / S Lander St,Illegal Burn,2025 Dec 29 08:51:00 PM,47.579471,-122.312377
535 13th Ave E,Illegal Burn,2025 Dec 29 08:40:00 PM,47.62351,-122.315698
1700 17th Ave,Auto Fire Alarm,2025 Dec 29 08:34:00 PM,47.616443,-122.310151
1900 5th Ave,Auto Fire Alarm,2025 Dec 29 08:20:00 PM,47.612958,-122.337873
1250 5th Ave N,Auto Fire Alarm,2025 Dec 29 08:07:00 PM,47.630682,-122.347488
2014 E Madison St,Auto Fire Alarm,2025 Dec 29 07:59:00 PM,47.617381,-122.305854
2021 4th Ave,Rubbish Fire,2025 Dec 29 07:50:00 PM,47.61322,-122.340298
6940 62nd Ave Ne,Auto Fire Alarm,2025 Dec 29 07:45:00 PM,47.678821,-122.262227
1526 3rd Ave,Auto Fire Alarm,2025 Dec 29 07:23:00 PM,47.610003,-122.338025
116 Stewart St,Illegal Burn,2025 Dec 29 07:19:00 PM,47.610387,-122.341198
4003 34TH AVE W,Chimney Fire,2025 Dec 29 07:01:00 PM,47.655884,-122.400896
4544 7th Ave Ne,Auto Fire Alarm,2025 Dec 29 06:35:00 PM,47.662004,-122.320724
3rd Ave S / S Lander St,Illegal Burn,2025 Dec 29 06:32:00 PM,47.579716,-122.329988
10336 Lake City Way Ne,Illegal Burn,2025 Dec 29 05:56:00 PM,47.703425,-122.301605
1144 Sturgus Ave S,Illegal Burn,2025 Dec 29 05:49:00 PM,47.592768,-122.31327
2209 1st Ave,Auto Fire Alarm,2025 Dec 29 05:20:00 PM,47.612669,-122.345319
2201 S Grand St,Auto Fire Alarm,2025 Dec 29 05:11:00 PM,47.586924,-122.303848
700 Seneca St,Illegal Burn,2025 Dec 29 04:44:00 PM,47.609015,-122.330631
1100 E Harrison St,Auto Fire Alarm,2025 Dec 29 03:48:00 PM,47.621971,-122.317823
4730 California Ave Sw,Auto Fire Alarm,2025 Dec 29 03:24:00 PM,47.560561,-122.386794
6th Ave S / S Holgate St,Brush Fire,2025 Dec 29 03:08:00 PM,47.586175,-122.325975
1504 Aurora Ave N,Auto Fire Alarm,2025 Dec 29 02:32:00 PM,47.632345,-122.343398
10345 Meridian Ave N,Auto Fire Alarm,2025 Dec 29 02:23:00 PM,47.703624,-122.333909
Boylston Ave E / E Olive Way,Illegal Burn,2025 Dec 29 12:26:00 PM,47.619809,-122.323471
3800 S Angeline St,Auto Fire Alarm,2025 Dec 29 12:05:00 PM,47.559459,-122.284294
4553 14th Ave S,Rubbish Fire,2025 Dec 29 11:52:00 AM,47.562527,-122.314815
435 Dexter Ave N,Auto Fire Alarm,2025 Dec 29 11:49:00 AM,47.622461,-122.342368
10330 Meridian Ave N,Auto Fire Alarm,2025 Dec 29 11:40:00 AM,47.703486,-122.333907
6720 East Green Lake Way N,Auto Fire Alarm,2025 Dec 29 11:30:00 AM,47.67834,-122.32895
Martin Luther King Jr Way E / E Madison St,Illegal Burn,2025 Dec 29 11:27:00 AM,47.623317,-122.296424
15th Ave E / E John St,Illegal Burn,2025 Dec 29 10:27:00 AM,47.619967,-122.312719
600 N 130th St,Auto Fire Alarm,2025 Dec 29 09:55:00 AM,47.723223,-122.351624
1519 Alaskan Way S,Car Fire,2025 Dec 29 09:54:00 AM,47.59017,-122.337486
5000 University Way Ne,Illegal Burn,2025 Dec 29 09:08:00 AM,47.664901,-122.313074
821 S Washington St,Rubbish Fire,2025 Dec 29 08:57:00 AM,47.601434,-122.322379
1414 Dexter Ave N,Auto Fire Alarm,2025 Dec 29 08:46:00 AM,47.631529,-122.342288
330 Ne Northgate Way,Auto Fire Alarm,2025 Dec 29 08:31:00 AM,47.708609,-122.325545
330 Ne Northgate Way,Auto Fire Alarm,2025 Dec 29 08:27:00 AM,47.708609,-122.325545
703 Bellevue Ave E,Auto Fire Alarm,2025 Dec 29 08:22:00 AM,47.625138,-122.326603
917 E Yesler Way,Illegal Burn,2025 Dec 29 08:20:00 AM,47.6017,-122.320537
330 Ne Northgate Way,Auto Fire Alarm,2025 Dec 29 07:53:00 AM,47.708609,-122.325545
9245 Rainier Ave S,Brush Fire,2025 Dec 29 07:48:00 AM,47.519875,-122.269051
1147 Sturgus Ave S,Illegal Burn,2025 Dec 29 07:30:00 AM,47.592745,-122.313252
8854 Delridge Way Sw,Auto Fire Alarm,2025 Dec 29 07:09:00 AM,47.523347,-122.36049
35th Ave Sw / Sw Avalon Way,Illegal Burn,2025 Dec 29 06:55:00 AM,47.564077,-122.376189
S King St / 5th Ave S,Dumpster Fire,2025 Dec 29 06:50:00 AM,47.598356,-122.327671
Cedar St / Denny Way,Illegal Burn,2025 Dec 29 06:46:00 AM,47.618571,-122.347621
S Jackson St / 10th Ave S,Illegal Burn,2025 Dec 29 06:32:00 AM,47.599184,-122.319639
2415 Western Ave,Auto Fire Alarm,2025 Dec 29 06:23:00 AM,47.613559,-122.348806
2219 2nd Ave,Auto Fire Alarm,2025 Dec 29 05:41:00 AM,47.613412,-122.344592
7th Ave S / S Jackson St,Rubbish Fire,2025 Dec 29 04:43:00 AM,47.599189,-122.32375
1510 1st Ave,Dumpster Fire,2025 Dec 29 03:55:00 AM,47.608912,-122.340096
4524 17th Ave Ne,Auto Fire Alarm,2025 Dec 29 03:42:00 AM,47.661478,-122.309511
800 Jefferson St,Auto Fire Alarm,2025 Dec 29 03:26:00 AM,47.604315,-122.32531
10515 Midvale Ave N,Rubbish Fire,2025 Dec 29 03:14:00 AM,47.705178,-122.343331
13030 Linden Ave N,Auto Fire Alarm,2025 Dec 29 02:40:00 AM,47.723429,-122.348165
224 Pontius Ave N,Auto Fire Alarm,2025 Dec 29 01:57:00 AM,47.619935,-122.331699
3621 33rd Ave S,Auto Fire Alarm,2025 Dec 29 01:10:00 AM,47.571408,-122.291001
700 Seneca St,Dumpster Fire,2025 Dec 28 11:15:00 PM,47.609015,-122.330631
1718 Melrose Ave,Auto Fire Alarm,2025 Dec 28 10:45:00 PM,47.617193,-122.327873
1212 Queen Anne Ave N,Auto Fire Alarm,2025 Dec 28 10:36:00 PM,47.62967,-122.356621
7906 AURORA AVE N,Illegal Burn,2025 Dec 28 09:19:00 PM,47.686263,-122.3445
1502 E Yesler Way,Auto Fire Alarm,2025 Dec 28 08:41:00 PM,47.601686,-122.31285
9801 AURORA AVE N,Illegal Burn,2025 Dec 28 08:28:00 PM,47.700525,-122.34464
1215 QUEEN ANNE AVE N,Rubbish Fire,2025 Dec 28 07:46:00 PM,47.629697,-122.35662
12th Ave / E Alder St,Illegal Burn,2025 Dec 28 07:31:00 PM,47.60419,-122.316781
711 E Union St,Rubbish Fire,2025 Dec 28 07:15:00 PM,47.612987,-122.322823
1102 8th Ave,Auto Fire Alarm,2025 Dec 28 07:06:00 PM,47.608665,-122.329131
533 3rd Ave W,Auto Fire Alarm,2025 Dec 28 06:44:00 PM,47.623717,-122.360635
4548 Brooklyn Ave Ne,Rubbish Fire,2025 Dec 28 05:32:00 PM,47.66171,-122.314275
N 44th St / Aurora Ave N,Rubbish Fire,2025 Dec 28 05:25:00 PM,47.660036,-122.347386
S Spokane St / 2nd Ave S,Illegal Burn,2025 Dec 28 04:58:00 PM,47.571406,-122.332007
9020 20th Ave Sw,Illegal Burn,2025 Dec 28 04:45:00 PM,47.522276,-122.359149
96 S Main St,Rubbish Fire,2025 Dec 28 04:08:00 PM,47.600044,-122.334262
Seneca St / Hubbell Pl,Illegal Burn,2025 Dec 28 04:05:00 PM,47.609015,-122.330631
1531 Western Ave,Auto Fire Alarm,2025 Dec 28 03:43:00 PM,47.608661,-122.341402
5000 East Marginal Way S,Auto Fire Alarm,2025 Dec 28 02:36:00 PM,47.557413,-122.339111
321 10th Ave S,Illegal Burn,2025 Dec 28 01:14:00 PM,47.59965,-122.319633
96 S Main St,Illegal Burn,2025 Dec 28 12:18:00 PM,47.600044,-122.334262
4336 Roosevelt Way Ne,Rubbish Fire,2025 Dec 28 11:13:00 AM,47.660016,-122.317738
100 Taylor Ave N,Auto Fire Alarm,2025 Dec 28 10:35:00 AM,47.618566,-122.346316
2nd Ave / Lenora St,Illegal Burn,2025 Dec 28 08:43:00 AM,47.612502,-122.343053
6th Ave Ne / Ne 40th St,Rubbish Fire,2025 Dec 28 07:44:00 AM,47.655517,-122.322692
1st Ave / Pike St,Illegal Burn,2025 Dec 28 06:36:00 AM,47.608821,-122.340013
John St / Minor Ave N,Car Fire,2025 Dec 28 06:10:00 AM,47.619662,-122.33298
4801 24th Ave Ne,Auto Fire Alarm,2025 Dec 28 04:31:00 AM,47.66378,-122.301734
12th Ave S / S Jackson St,Illegal Burn,2025 Dec 27 11:47:00 PM,47.599187,-122.317225
721 Pine St,Auto Fire Alarm,2025 Dec 27 11:34:00 PM,47.612701,-122.334021
954 E Union St,Auto Fire Alarm,2025 Dec 27 11:15:00 PM,47.612943,-122.319822
110 Boren Ave N,Auto Fire Alarm,2025 Dec 27 09:35:00 PM,47.618632,-122.335875
1911 22nd Ave S,Auto Fire Alarm,2025 Dec 27 09:32:00 PM,47.586234,-122.304237
1010 12th Ave S,Auto Fire Alarm,2025 Dec 27 08:49:00 PM,47.593203,-122.317281
4545 Thackeray Pl Ne,Chimney Fire,2025 Dec 27 08:43:00 PM,47.661753,-122.326173
400 S Jackson St,Rubbish Fire,2025 Dec 27 07:10:00 PM,47.599197,-122.328968
N Northgate Way / Midvale Ave N,Illegal Burn,2025 Dec 27 07:07:00 PM,47.705049,-122.343329
1605 Boylston Ave,Auto Fire Alarm,2025 Dec 27 07:02:00 PM,47.615277,-122.323416
12th Ave S / S Charles St,Illegal Burn,2025 Dec 27 06:28:00 PM,47.593834,-122.317281
800 Jefferson St,Auto Fire Alarm,2025 Dec 27 05:12:00 PM,47.604315,-122.32531
707 Terry Ave,Auto Fire Alarm,2025 Dec 27 05:11:00 PM,47.606777,-122.324334
2317 California Ave Sw,Auto Fire Alarm,2025 Dec 27 05:08:00 PM,47.582892,-122.386483
Roosevelt Way Ne / Ne 45th St,Rubbish Fire,2025 Dec 27 04:47:00 PM,47.661299,-122.317638
5019 ROOSEVELT WAY NE,Rubbish Fire,2025 Dec 27 04:19:00 PM,47.665073,-122.317402
1100 5th Ave,Auto Fire Alarm,2025 Dec 27 03:44:00 PM,47.607266,-122.332451
924 N 143rd St,Auto Fire Alarm,2025 Dec 27 03:20:00 PM,47.732314,-122.346635
2715 25th Ave S,Auto Fire Alarm,2025 Dec 27 03:17:00 PM,47.579039,-122.300283
699 John St,Auto Fire Alarm,2025 Dec 27 01:18:00 PM,47.619719,-122.34368
698 Seneca St,Illegal Burn,2025 Dec 27 12:42:00 PM,47.609015,-122.330631
2707 Rainier Ave S,Rubbish Fire,2025 Dec 27 12:30:00 PM,47.579152,-122.298763
2445 Nw 57th St,Auto Fire Alarm,2025 Dec 27 12:10:00 PM,47.670187,-122.388155
2550 S EDDY ST,Illegal Burn,2025 Dec 27 11:40:00 AM,47.54539,-122.299505
1601 13th Ave,Auto Fire Alarm,2025 Dec 27 11:01:00 AM,47.615273,-122.315549
2401 S Jackson St,Auto Fire Alarm,2025 Dec 27 10:57:00 AM,47.599288,-122.301125
420 Valley St,Auto Fire Alarm,2025 Dec 27 10:39:00 AM,47.626285,-122.348596
35th Ave Sw / Sw Alaska St,Rubbish Fire,2025 Dec 27 08:14:00 AM,47.561066,-122.376216
S Jackson St / Boren Ave S,Rubbish Fire,2025 Dec 27 07:58:00 AM,47.59921,-122.314137
1212 S MAIN ST,Illegal Burn,2025 Dec 27 07:56:00 AM,47.600012,-122.316661
N 55th St / Keystone Pl N,Rubbish Fire,2025 Dec 27 07:36:00 AM,47.66868,-122.332989
937 N 96th St,Auto Fire Alarm,2025 Dec 27 07:31:00 AM,47.698721,-122.34681
Denny Way / Stewart St,Illegal Burn,2025 Dec 27 06:48:00 AM,47.618492,-122.330723
2622 California Ave Sw,Dumpster Fire,2025 Dec 27 06:47:00 AM,47.580763,-122.386563
1334 Terry Ave,Auto Fire Alarm,2025 Dec 27 02:13:00 AM,47.611348,-122.328514
916 E Pike St,Auto Fire Alarm,2025 Dec 27 01:24:00 AM,47.614077,-122.320562
1814 Minor Ave,Auto Fire Alarm,2025 Dec 27 12:28:00 AM,47.616942,-122.330731
S Holgate St / 3rd Ave S,Illegal Burn,2025 Dec 26 11:49:00 PM,47.58617,-122.329979
901 6th Ave,Auto Fire Alarm,2025 Dec 26 11:28:00 PM,47.606302,-122.330039
112 BELLEVUE AVE E,Illegal Burn,2025 Dec 26 09:53:00 PM,47.618872,-122.326725
151 12th Ave,Illegal Burn,2025 Dec 26 09:40:00 PM,47.602686,-122.316782
6620 ROOSEVELT WAY NE,Auto Fire Alarm,2025 Dec 26 09:37:00 PM,47.676695,-122.317375
11755 Corliss Ave N,Illegal Burn,2025 Dec 26 09:25:00 PM,47.71442,-122.33143
1911 Aurora Ave N,Illegal Burn,2025 Dec 26 08:56:00 PM,47.640453,-122.346334
75 Vine St,Auto Fire Alarm,2025 Dec 26 08:34:00 PM,47.614585,-122.350542
700 Seneca St,Rubbish Fire,2025 Dec 26 08:28:00 PM,47.609015,-122.330631
409 8th Ave S,Auto Fire Alarm,2025 Dec 26 07:46:00 PM,47.599109,-122.322445
655 Crockett St,Auto Fire Alarm,2025 Dec 26 07:23:00 PM,47.637511,-122.343689
E Denny Way / E Olive Way,Brush Fire,2025 Dec 26 07:07:00 PM,47.618489,-122.325633
1821 Boren Ave,Auto Fire Alarm,2025 Dec 26 06:09:00 PM,47.616329,-122.331683
11201 Roosevelt Way Ne,Auto Fire Alarm,2025 Dec 26 05:55:00 PM,47.710279,-122.317673
1920 4th Ave,Auto Fire Alarm,2025 Dec 26 05:35:00 PM,47.612443,-122.338984
220 10th Ave,Auto Fire Alarm,2025 Dec 26 05:25:00 PM,47.603682,-122.319409
14100 Linden Ave N,Dumpster Fire,2025 Dec 26 05:14:00 PM,47.73104,-122.347764
3421 30th Ave Sw,Fire in Building,2025 Dec 26 04:36:00 PM,47.572752,-122.371373
Sw Admiral Way / Sw Olga St,Illegal Burn,2025 Dec 26 03:54:00 PM,47.580275,-122.376707
101 Taylor Ave N,Auto Fire Alarm,2025 Dec 26 03:28:00 PM,47.618566,-122.346316
75 Vine St,Auto Fire Alarm,2025 Dec 26 02:58:00 PM,47.614585,-122.350542
4700 12th Ave Ne,Auto Fire Alarm,2025 Dec 26 02:03:00 PM,47.663106,-122.315263
417 8th Ave S,Auto Fire Alarm,2025 Dec 26 12:37:00 PM,47.599041,-122.322446
4720 Rainier Ave S,Auto Fire Alarm,2025 Dec 26 12:24:00 PM,47.560482,-122.286803
1900 S Waite St,Illegal Burn,2025 Dec 26 09:05:00 AM,47.580273,-122.308736
26th Ave S / S Forest St,Illegal Burn,2025 Dec 26 08:34:00 AM,47.577527,-122.299272
12th Ave S / S Main St,Illegal Burn,2025 Dec 26 08:16:00 AM,47.600015,-122.31723
Rainier Ave S / S Rose St,Illegal Burn,2025 Dec 26 07:51:00 AM,47.52913,-122.269987
4435 35th Ave Sw,Dumpster Fire,2025 Dec 26 04:27:00 AM,47.563869,-122.376191
509 3rd Ave,Auto Fire Alarm,2025 Dec 26 02:18:00 AM,47.602114,-122.330809
3rd Ave / Bell St,Illegal Burn,2025 Dec 26 01:41:00 AM,47.614705,-122.344794
151 12th Ave,Rubbish Fire,2025 Dec 26 01:03:00 AM,47.602686,-122.316782
619 3rd Ave,Auto Fire Alarm,2025 Dec 26 12:56:00 AM,47.6029,-122.331529
1550 Nw Market St,Rubbish Fire,2025 Dec 26 12:36:00 AM,47.668671,-122.377632
924 N 143rd St,Auto Fire Alarm,2025 Dec 25 09:32:00 PM,47.732314,-122.346635
1701 Nw 56th St,Rubbish Fire,2025 Dec 25 06:25:00 PM,47.669446,-122.378884
1000 8th Ave,Auto Fire Alarm,2025 Dec 25 05:57:00 PM,47.607945,-122.328471
11521 26TH AVE NE,Fire in Building,2025 Dec 25 05:53:00 PM,47.712261,-122.300347
5509 Lake Washington Blvd S,Rubbish Fire,2025 Dec 25 05:35:00 PM,47.552046,-122.260067
1415 2nd Ave,Auto Fire Alarm,2025 Dec 25 05:28:00 PM,47.608434,-122.338125
917 E Yesler Way,Rubbish Fire,2025 Dec 25 05:24:00 PM,47.6017,-122.320537
13215 39th Ave Ne,Auto Fire Alarm,2025 Dec 25 05:03:00 PM,47.724448,-122.286397
131 10th Ave E,Rubbish Fire,2025 Dec 25 04:31:00 PM,47.619107,-122.319527
1010 12th Ave S,Auto Fire Alarm,2025 Dec 25 04:23:00 PM,47.593203,-122.317281
14396 30th Ave Ne,Auto Fire Alarm,2025 Dec 25 03:31:00 PM,47.732881,-122.296531
925 Seneca St,Auto Fire Alarm,2025 Dec 25 03:27:00 PM,47.609955,-122.328383
65 S Washington St,Auto Fire Alarm,2025 Dec 25 02:54:00 PM,47.600886,-122.335349
97 S Main St,Illegal Burn,2025 Dec 25 02:26:00 PM,47.600044,-122.334219
1911 22nd Ave S,Auto Fire Alarm,2025 Dec 25 02:02:00 PM,47.586234,-122.304237
BOYLSTON AVE / E PINE ST,Illegal Burn,2025 Dec 25 02:00:00 PM,47.615231,-122.323415
329 23rd Ave S,Auto Fire Alarm,2025 Dec 25 01:20:00 PM,47.600013,-122.302235
6600 Roosevelt Way Ne,Auto Fire Alarm,2025 Dec 25 12:17:00 PM,47.676554,-122.317373
9th Ave Sw / Sw Roxbury St,Illegal Burn,2025 Dec 25 12:07:00 PM,47.517311,-122.346697
27th Ave E / E Arthur Pl,Rubbish Fire,2025 Dec 25 11:25:00 AM,47.622265,-122.297026
9455 27th Ave Sw,Auto Fire Alarm,2025 Dec 25 11:22:00 AM,47.518178,-122.367277
1601 E Yesler Way,Auto Fire Alarm,2025 Dec 25 10:47:00 AM,47.601683,-122.311556
5444 Delridge Way Sw,Auto Fire Alarm,2025 Dec 25 09:11:00 AM,47.553321,-122.362969
Rainier Ave S / S Bayview St,Illegal Burn,2025 Dec 25 08:42:00 AM,47.580994,-122.300167
12th Ave S / S Jackson St,Rubbish Fire,2025 Dec 25 06:44:00 AM,47.599187,-122.317225
Boylston Ave / Madison St,Rubbish Fire,2025 Dec 25 06:24:00 AM,47.61073,-122.32181
816 E Pike St,Fire in Building,2025 Dec 25 06:20:00 AM,47.614068,-122.321894
3651 34th Ave S,Auto Fire Alarm,2025 Dec 25 06:14:00 AM,47.571115,-122.28993
Rainier Ave S / S Charles St,Illegal Burn,2025 Dec 25 04:36:00 AM,47.594072,-122.31015
4559 California Ave Sw,Illegal Burn,2025 Dec 25 03:42:00 AM,47.562374,-122.386776
3315 Claremont Ave S,Dumpster Fire,2025 Dec 25 02:27:00 AM,47.573378,-122.29584
4301 Stone Way N,Auto Fire Alarm,2025 Dec 25 01:45:00 AM,47.659183,-122.342256
6000 16th Ave Sw,Illegal Burn,2025 Dec 24 10:11:00 PM,47.548872,-122.354833
2615 1st Ave,Auto Fire Alarm,2025 Dec 24 08:53:00 PM,47.615328,-122.349815
415 6th Ave,Illegal Burn,2025 Dec 24 08:22:00 PM,47.603396,-122.327378
1712 Boylston Ave,Auto Fire Alarm,2025 Dec 24 08:13:00 PM,47.616639,-122.323436
N 85th St / Aurora Ave N,Illegal Burn,2025 Dec 24 07:43:00 PM,47.690563,-122.344522
West Marginal Way Sw / 2nd Ave Sw,Rubbish Fire,2025 Dec 24 06:09:00 PM,47.537402,-122.337085
11285 LAKE CITY WAY NE,Rubbish Fire,2025 Dec 24 05:56:00 PM,47.710332,-122.300523
100 Melrose Ave E,Auto Fire Alarm,2025 Dec 24 05:52:00 PM,47.618497,-122.327854
14027 Lake City Way Ne,Auto Fire Alarm,2025 Dec 24 05:49:00 PM,47.730274,-122.292316
8532 15th Ave Nw,Car Fire,2025 Dec 24 05:26:00 PM,47.690901,-122.376806
25th Ave S / Rainier Ave S,Illegal Burn,2025 Dec 24 04:58:00 PM,47.581242,-122.300356
12526 27th Ave Ne,Illegal Burn,2025 Dec 24 04:30:00 PM,47.71953,-122.299091
4301 Stone Way N,Auto Fire Alarm,2025 Dec 24 04:19:00 PM,47.659183,-122.342256
1350 Alki Ave Sw,Auto Fire Alarm,2025 Dec 24 04:15:00 PM,47.591943,-122.391702
171 12th Ave,Illegal Burn,2025 Dec 24 03:53:00 PM,47.603031,-122.316782
Alki Ave Sw / 61st Ave Sw,Illegal Burn,2025 Dec 24 02:49:00 PM,47.579125,-122.410648
118 Bell St,Auto Fire Alarm,2025 Dec 24 02:33:00 PM,47.613497,-122.346355
1225 E Roy St,Auto Fire Alarm,2025 Dec 24 02:07:00 PM,47.625344,-122.316549
1315 Ne Campus Pkwy,Auto Fire Alarm,2025 Dec 24 01:54:00 PM,47.655998,-122.31426
1732 Broadway,Illegal Burn,2025 Dec 24 01:05:00 PM,47.616772,-122.320823
610 Yesler Way,Illegal Burn,2025 Dec 24 12:36:00 PM,47.601709,-122.32611
4720 Rainier Ave S,Auto Fire Alarm,2025 Dec 24 12:28:00 PM,47.560482,-122.286803
1501 17th Ave,Auto Fire Alarm,2025 Dec 24 12:25:00 PM,47.614106,-122.310161
1624 Boren Ave,Auto Fire Alarm,2025 Dec 24 11:41:00 AM,47.61469,-122.330035
8422 Rainier Ave S,Illegal Burn,2025 Dec 24 11:34:00 AM,47.528857,-122.269987
211 Lenora St,Auto Fire Alarm,2025 Dec 24 10:55:00 AM,47.612577,-122.342956
707 Terry Ave,Auto Fire Alarm,2025 Dec 24 10:35:00 AM,47.606777,-122.324334
2021 7th Ave,Auto Fire Alarm,2025 Dec 24 10:07:00 AM,47.615345,-122.337941
12th Ave / E Yesler Way,Rubbish Fire,2025 Dec 24 09:48:00 AM,47.601693,-122.316782
210 S Lucile St,Auto Fire Alarm,2025 Dec 24 09:19:00 AM,47.553414,-122.332237
Harrison St / 7th Ave N,Rubbish Fire,2025 Dec 24 08:32:00 AM,47.622061,-122.343675
1911 22nd Ave S,Auto Fire Alarm,2025 Dec 24 07:51:00 AM,47.586234,-122.304237
Seneca St / Harvard Ave,Rubbish Fire,2025 Dec 24 07:42:00 AM,47.612736,-122.322086
4301 Stone Way N,Auto Fire Alarm,2025 Dec 24 07:41:00 AM,47.659183,-122.342256
1200 Westlake Ave N,Auto Fire Alarm,2025 Dec 24 07:38:00 AM,47.629712,-122.341007
Greenwood Ave N / Holman Rd N,Illegal Burn,2025 Dec 24 06:44:00 AM,47.705084,-122.355453
8536 Nesbit Ave N,Dumpster Fire,2025 Dec 24 06:38:00 AM,47.690768,-122.343451
1101 Madison St,Auto Fire Alarm,2025 Dec 24 04:22:00 AM,47.609343,-122.325128
12th Ave S / S Jackson St,Rubbish Fire,2025 Dec 24 02:42:00 AM,47.599187,-122.317225
151 12th Ave,Illegal Burn,2025 Dec 24 02:01:00 AM,47.602686,-122.316782
2600 Sw Barton St,Rubbish Fire,2025 Dec 24 01:36:00 AM,47.521022,-122.365894
E James Way / Broadway,Brush Fire,2025 Dec 24 12:45:00 AM,47.607218,-122.320752
Broadway / Minor Ave,Rubbish Fire,2025 Dec 24 12:30:00 AM,47.606469,-122.32075
5963 Corson Ave S,Rubbish Fire,2025 Dec 24 12:19:00 AM,47.548983,-122.320994
814 Columbia St,Auto Fire Alarm,2025 Dec 24 12:18:00 AM,47.606584,-122.327007
1525 14th Ave,Auto Fire Alarm,2025 Dec 23 11:52:00 PM,47.614406,-122.314228
415 10th Ave,Auto Fire Alarm,2025 Dec 23 11:50:00 PM,47.605346,-122.319413
200 Denny Way,Auto Fire Alarm,2025 Dec 23 11:12:00 PM,47.618592,-122.352839
901 Nw Ballard Way,Dumpster Fire,2025 Dec 23 10:57:00 PM,47.662937,-122.3686
10215 Lake City Way Ne,Auto Fire Alarm,2025 Dec 23 10:53:00 PM,47.702197,-122.301853
200 Denny Way,Auto Fire Alarm,2025 Dec 23 10:03:00 PM,47.618592,-122.352839
814 Columbia St,Auto Fire Alarm,2025 Dec 23 09:41:00 PM,47.606584,-122.327007
1007 12th Ave S,Illegal Burn,2025 Dec 23 07:06:00 PM,47.59322,-122.317281
515 13th Ave E,Illegal Burn,2025 Dec 23 06:59:00 PM,47.623275,-122.315701
1000 E Yesler Way,Auto Fire Alarm,2025 Dec 23 06:58:00 PM,47.601698,-122.319582
800 Jefferson St,Auto Fire Alarm,2025 Dec 23 06:48:00 PM,47.604315,-122.32531
2523 15th Ave S,Auto Fire Alarm,2025 Dec 23 06:15:00 PM,47.58055,-122.313411
24th Ave Sw / 25th Ave Sw,Illegal Burn,2025 Dec 23 04:46:00 PM,47.544721,-122.364357
Airport Way S / Maynard Ave S,Illegal Burn,2025 Dec 23 04:28:00 PM,47.594158,-122.325071
533 3rd Ave W,Auto Fire Alarm,2025 Dec 23 03:58:00 PM,47.623717,-122.360635
1030 W NICKERSON ST,Car Fire,2025 Dec 23 03:07:00 PM,47.654075,-122.370443
2870 S Hanford St,Auto Fire Alarm,2025 Dec 23 01:57:00 PM,47.574853,-122.295888
5325 Ballard Ave Nw,Auto Fire Alarm,2025 Dec 23 01:27:00 PM,47.666723,-122.383569
14022 Midvale Ave N,Fire in Building,2025 Dec 23 12:38:00 PM,47.73062,-122.343965
4th Ave S / S Holgate St,Rubbish Fire,2025 Dec 23 11:36:00 AM,47.58617,-122.329062
6th Ave S / S Holgate St,Illegal Burn,2025 Dec 23 11:26:00 AM,47.586175,-122.325975
1400 6th Ave,Auto Fire Alarm,2025 Dec 23 11:17:00 AM,47.61015,-122.333556
2410 W Manor Pl,Auto Fire Alarm,2025 Dec 23 10:55:00 AM,47.653933,-122.387564
7345 Delridge Way Sw,Illegal Burn,2025 Dec 23 10:17:00 AM,47.536381,-122.361331
10th Ave S / S Dearborn St,Illegal Burn,2025 Dec 23 10:06:00 AM,47.595825,-122.319215
6420 California Ave Sw,Auto Fire Alarm,2025 Dec 23 09:39:00 AM,47.545489,-122.387208
1111 W Nickerson St,Rubbish Fire,2025 Dec 23 09:20:00 AM,47.654772,-122.371622
1711 23rd Ave S,Auto Fire Alarm,2025 Dec 23 09:19:00 AM,47.58821,-122.302596
1902 2nd Ave,Auto Fire Alarm,2025 Dec 23 08:41:00 AM,47.610972,-122.340465
1029 S Jackson St,Auto Fire Alarm,2025 Dec 23 08:19:00 AM,47.599184,-122.319285
223 Yesler Way,Rubbish Fire,2025 Dec 23 08:15:00 AM,47.601718,-122.331581
223 Yesler Way,Illegal Burn,2025 Dec 23 07:51:00 AM,47.601718,-122.331581
S King St / Maynard Ave S,Rubbish Fire,2025 Dec 23 07:15:00 AM,47.598352,-122.325059
601 2nd Ave,Auto Fire Alarm,2025 Dec 23 06:57:00 AM,47.602306,-122.332519
401 Terry Ave N,Auto Fire Alarm,2025 Dec 23 06:22:00 AM,47.622036,-122.337151
1300 Hubbell Pl,Auto Fire Alarm,2025 Dec 23 06:16:00 AM,47.610249,-122.330769
1617 BOYLSTON AVE,Dumpster Fire,2025 Dec 23 06:08:00 AM,47.615416,-122.323419
1920 1st Ave,Car Fire,2025 Dec 23 04:35:00 AM,47.61044,-122.34155
600 9th Ave,Dumpster Fire,2025 Dec 23 01:14:00 AM,47.605555,-122.324749
2700 Rainier Ave S,Rubbish Fire,2025 Dec 23 12:12:00 AM,47.579214,-122.29881
601 W Mercer Pl,Auto Fire Alarm,2025 Dec 22 10:08:00 PM,47.625174,-122.364534
1113 6th Ave,Rubbish Fire,2025 Dec 22 08:20:00 PM,47.607817,-122.331423
1144 Nw 53rd St,Auto Fire Alarm,2025 Dec 22 06:35:00 PM,47.667157,-122.37117
621 5th Ave N,Auto Fire Alarm,2025 Dec 22 06:27:00 PM,47.624686,-122.347568
4th Ave S / S Spokane St,Illegal Burn,2025 Dec 22 06:26:00 PM,47.571421,-122.329077
1600 2nd Ave,Fire In A Highrise,2025 Dec 22 06:00:00 PM,47.610278,-122.339812
204 Ne 94th St,Auto Fire Alarm,2025 Dec 22 05:38:00 PM,47.69681,-122.327101
312 2nd Ave W,Auto Fire Alarm,2025 Dec 22 03:22:00 PM,47.621082,-122.359348
1033 6th Ave S,Auto Fire Alarm,2025 Dec 22 03:17:00 PM,47.593801,-122.325968
Madison St / Broadway,Rubbish Fire,2025 Dec 22 03:06:00 PM,47.611169,-122.32076
225 Harvard Ave E,Auto Fire Alarm,2025 Dec 22 01:59:00 PM,47.620184,-122.322211
10TH AVE S / S DEARBORN ST,Illegal Burn,2025 Dec 22 01:13:00 PM,47.595825,-122.319215
S Hinds St / Colorado Ave S,Illegal Burn,2025 Dec 22 12:35:00 PM,47.573701,-122.336789
Airport Way S / S Horton St,Illegal Burn,2025 Dec 22 12:31:00 PM,47.574225,-122.321403
Nb I5 At Rainier Brewery,Car Fire Freeway,2025 Dec 22 12:23:00 PM,47.566974,-122.32047
200 Summit Ave E,Illegal Burn,2025 Dec 22 10:07:00 AM,47.619651,-122.325294
325 Broadway E,Illegal Burn,2025 Dec 22 09:31:00 AM,47.621299,-122.320895
6188 4th Ave S,Auto Fire Alarm,2025 Dec 22 09:28:00 AM,47.547461,-122.329585
5000 25th Ave Ne,Auto Fire Alarm,2025 Dec 22 08:27:00 AM,47.665337,-122.30071
6901 Martin Luther King Jr Way S,Auto Fire Alarm,2025 Dec 22 07:51:00 AM,47.540684,-122.283048
698 Seneca St,Illegal Burn,2025 Dec 22 07:18:00 AM,47.609015,-122.330631
800 Jefferson St,Auto Fire Alarm,2025 Dec 22 07:07:00 AM,47.604315,-122.32531
1395 Marion St,Auto Fire Alarm,2025 Dec 22 07:02:00 AM,47.610003,-122.321192
400 Pike St,Rubbish Fire,2025 Dec 22 07:00:00 AM,47.610214,-122.336683
1705 Ne Pacific St,Auto Fire Alarm,2025 Dec 22 06:28:00 AM,47.651545,-122.309599
9120 Aurora Ave N,Auto Fire Alarm,2025 Dec 22 05:51:00 AM,47.69505,-122.344576
1423 Nw Market St,Illegal Burn,2025 Dec 22 05:40:00 AM,47.668665,-122.374178
410 2nd Ave Et S,Rubbish Fire,2025 Dec 22 05:28:00 AM,47.601202,-122.331511
509 3rd Ave,Auto Fire Alarm,2025 Dec 22 05:20:00 AM,47.602114,-122.330809
1264 Westlake Ave N,Auto Fire Alarm,2025 Dec 22 04:36:00 AM,47.63025,-122.341002
1917 1st Ave,Rubbish Fire,2025 Dec 22 01:50:00 AM,47.610417,-122.34151
Lake Washington Blvd S / S Irving St,Rubbish Fire,2025 Dec 22 01:05:00 AM,47.591136,-122.289109
10TH AVE S / S DEARBORN ST,Rubbish Fire,2025 Dec 22 12:53:00 AM,47.595825,-122.319215
3rd Ave Ne / Ne 112th St,Illegal Burn,2025 Dec 21 10:51:00 PM,47.709602,-122.325981
14115 Aurora Ave N,Auto Fire Alarm,2025 Dec 21 10:03:00 PM,47.731129,-122.345064
223 Yesler Way,Illegal Burn,2025 Dec 21 09:48:00 PM,47.601718,-122.331581
225 Harvard Ave E,Auto Fire Alarm,2025 Dec 21 09:47:00 PM,47.620184,-122.322211
3936 S Kenyon St,Auto Fire Alarm,2025 Dec 21 09:42:00 PM,47.531541,-122.282895
619 8th Ave S,Illegal Burn,2025 Dec 21 08:31:00 PM,47.597346,-122.322453
801 5th Ave,Auto Fire Alarm,2025 Dec 21 08:17:00 PM,47.605126,-122.330494
2807 S Mcclellan St,Auto Fire Alarm,2025 Dec 21 07:14:00 PM,47.578347,-122.296116
Ballard Ave Nw / Nw Market St,Illegal Burn,2025 Dec 21 05:50:00 PM,47.66868,-122.386368
1609 Boylston Ave,Illegal Burn,2025 Dec 21 04:10:00 PM,47.615323,-122.323417
506 17th Ave E,Illegal Burn,2025 Dec 21 03:42:00 PM,47.623339,-122.310037
622 Rainier Ave S,Auto Fire Alarm,2025 Dec 21 03:36:00 PM,47.597303,-122.312617
1222 S Weller St,Auto Fire Alarm,2025 Dec 21 03:06:00 PM,47.597499,-122.316731
1400 Hubbell Pl,Auto Fire Alarm,2025 Dec 21 02:45:00 PM,47.611543,-122.330225
1029 S Jackson St,Illegal Burn,2025 Dec 21 02:26:00 PM,47.599184,-122.319285
1300 Hubbell Pl,Auto Fire Alarm,2025 Dec 21 01:52:00 PM,47.610249,-122.330769
4920 Meridian Ave N,Illegal Burn,2025 Dec 21 01:23:00 PM,47.664436,-122.333724
7357 43rd Ave S,Auto Fire Alarm,2025 Dec 21 01:14:00 PM,47.536524,-122.279376
3642 33rd Ave S,Auto Fire Alarm,2025 Dec 21 01:10:00 PM,47.571233,-122.291003
65 S Washington St,Auto Fire Alarm,2025 Dec 21 12:34:00 PM,47.600886,-122.335349
1110 N 96th St,Rubbish Fire,2025 Dec 21 12:13:00 PM,47.698533,-122.344485
1704 Ne Columbia Rd,Auto Fire Alarm,2025 Dec 21 11:49:00 AM,47.650205,-122.310398
35th Ave Sw / Sw Alaska St,Illegal Burn,2025 Dec 21 11:25:00 AM,47.561066,-122.376216
430 Minor Ave N,Illegal Burn,2025 Dec 21 07:25:00 AM,47.622312,-122.332995
916 N 143rd St,Auto Fire Alarm,2025 Dec 21 07:21:00 AM,47.732314,-122.347028
1401 Broadway,Auto Fire Alarm,2025 Dec 21 04:28:00 AM,47.612963,-122.320762
1305 E Mercer St,Rubbish Fire,2025 Dec 21 04:11:00 AM,47.624261,-122.315632
610 Harvard Ave E,Auto Fire Alarm,2025 Dec 21 03:47:00 AM,47.624349,-122.321989
125 Boren Ave S,Dumpster Fire,2025 Dec 21 01:45:00 AM,47.601549,-122.317677
2324 2nd Ave,Auto Fire Alarm,2025 Dec 20 11:23:00 PM,47.614219,-122.34596
223 Yesler Way,Illegal Burn,2025 Dec 20 09:36:00 PM,47.601718,-122.331581
1718 Melrose Ave,Dumpster Fire,2025 Dec 20 08:37:00 PM,47.617193,-122.327873
204 Ne 94th St,Auto Fire Alarm,2025 Dec 20 07:47:00 PM,47.69681,-122.327101
2820 Ne 127th St,Auto Fire Alarm,2025 Dec 20 07:19:00 PM,47.721101,-122.297581
110 W Olympic Pl,Auto Fire Alarm,2025 Dec 20 05:37:00 PM,47.626721,-122.35812
Ne 137th St / 37th Ave Ne,Illegal Burn,2025 Dec 20 05:34:00 PM,47.728274,-122.288259
516 SUMMIT AVE E,Illegal Burn,2025 Dec 20 05:25:00 PM,47.623314,-122.325313
4800 Sand Point Way Ne,Auto Fire Alarm,2025 Dec 20 02:25:00 PM,47.664275,-122.283475
705 Pike St,Auto Fire Alarm,2025 Dec 20 02:18:00 PM,47.61163,-122.333297
12546 33rd Ave Ne,Auto Fire Alarm,2025 Dec 20 02:09:00 PM,47.719585,-122.292729
12728 28th Ave Ne,Auto Fire Alarm,2025 Dec 20 01:45:00 PM,47.721878,-122.297729
220 11th Ave,Auto Fire Alarm,2025 Dec 20 12:00:00 PM,47.60368,-122.318103
3613 4th Ave S,Illegal Burn,2025 Dec 20 09:52:00 AM,47.570724,-122.329062
1505 E Harrison St,Auto Fire Alarm,2025 Dec 20 09:24:00 AM,47.622088,-122.312576
Lenora St / Alaskan Way,Rubbish Fire,2025 Dec 20 08:40:00 AM,47.609994,-122.346301
AURORA AVE N / GALER ST,Rubbish Fire,2025 Dec 20 08:18:00 AM,47.6323,-122.343399
1911 Aurora Ave N,Rubbish Fire,2025 Dec 20 08:15:00 AM,47.640453,-122.346334
1029 S Jackson St,Auto Fire Alarm,2025 Dec 20 05:48:00 AM,47.599184,-122.319285
1395 Marion St,Auto Fire Alarm,2025 Dec 20 05:14:00 AM,47.610003,-122.321192
2807 S Mcclellan St,Auto Fire Alarm,2025 Dec 20 03:27:00 AM,47.578347,-122.296116
8th Ave Nw / Nw 52nd St,Car Fire,2025 Dec 20 03:02:00 AM,47.66642,-122.366184
4536 Brooklyn Ave Ne,Illegal Burn,2025 Dec 20 02:02:00 AM,47.661599,-122.314278
2218 1st Ave,Illegal Burn,2025 Dec 20 01:35:00 AM,47.612739,-122.345439
518 34th Ave,FIREWATCH,2025 Dec 19 11:31:00 PM,47.606422,-122.28945
4515 Brooklyn Ave Ne,Auto Fire Alarm,2025 Dec 19 10:41:00 PM,47.661406,-122.314283
Nw Ballard Way / 15th Ave Nw,Rubbish Fire,2025 Dec 19 09:34:00 PM,47.662932,-122.376119
3407 Airport Way S,Auto Fire Alarm,2025 Dec 19 09:32:00 PM,47.573328,-122.321859
518 34th Ave,Fire in Building,2025 Dec 19 07:38:00 PM,47.606422,-122.28945
13201 AURORA AVE N,Dumpster Fire,2025 Dec 19 07:23:00 PM,47.724671,-122.344993
96 S Main St,Rubbish Fire,2025 Dec 19 06:29:00 PM,47.600044,-122.334262
E PINE ST / BOYLSTON AVE,Brush Fire,2025 Dec 19 06:27:00 PM,47.615231,-122.323415
171 12th Ave,Auto Fire Alarm,2025 Dec 19 05:58:00 PM,47.603031,-122.316782
Rainier Ave S / S Bayview St,Illegal Burn,2025 Dec 19 05:42:00 PM,47.580994,-122.300167
110 Union St,Auto Fire Alarm,2025 Dec 19 05:28:00 PM,47.607875,-122.338992
3824 S Myrtle St,Auto Fire Alarm,2025 Dec 19 05:24:00 PM,47.538881,-122.284496
32ND AVE S / S MYRTLE ST,Illegal Burn,2025 Dec 19 04:51:00 PM,47.538867,-122.291421
4TH AVE / PIKE ST,Illegal Burn,2025 Dec 19 04:46:00 PM,47.610214,-122.336683
10507 Aurora Ave N,Auto Fire Alarm,2025 Dec 19 04:28:00 PM,47.705096,-122.344695
3921 Linden Ave N,Auto Fire Alarm,2025 Dec 19 03:51:00 PM,47.654394,-122.348578
Leary Way Nw / 3rd Ave Nw,Rubbish Fire,2025 Dec 19 02:30:00 PM,47.654938,-122.360831
Harvard Ave / Broadway,Rubbish Fire,2025 Dec 19 01:58:00 PM,47.611259,-122.32076
2929 1st Ave,Auto Fire Alarm,2025 Dec 19 01:08:00 PM,47.617141,-122.352885
2709 Airport Way S,Auto Fire Alarm,2025 Dec 19 01:01:00 PM,47.579423,-122.321398
2931 S Mount Baker Blvd,Auto Fire Alarm,2025 Dec 19 12:24:00 PM,47.575875,-122.294935
1010 12th Ave S,Auto Fire Alarm,2025 Dec 19 12:22:00 PM,47.593203,-122.317281
4506 17th Ave Ne,Auto Fire Alarm,2025 Dec 19 10:19:00 AM,47.661314,-122.309512
8334 Rainier Ave S,Auto Fire Alarm,2025 Dec 19 09:50:00 AM,47.529392,-122.269988
6522 Fremont Ave N,Auto Fire Alarm,2025 Dec 19 09:40:00 AM,47.676243,-122.3499
505 Ne 70th St,Auto Fire Alarm,2025 Dec 19 09:34:00 AM,47.679478,-122.322726
747 Broadway,Auto Fire Alarm,2025 Dec 19 09:29:00 AM,47.608611,-122.320756
3215 Ne 143rd St,Auto Fire Alarm,2025 Dec 19 08:44:00 AM,47.731953,-122.293609
550 14th Ave,Auto Fire Alarm,2025 Dec 19 08:27:00 AM,47.606651,-122.314162
N 105th St / Greenwood Ave N,Rubbish Fire,2025 Dec 19 08:12:00 AM,47.705084,-122.355453
Lake City Way Ne / Ne 115th St,Illegal Burn,2025 Dec 19 08:11:00 AM,47.712044,-122.299512
4700 12th Ave Ne,Auto Fire Alarm,2025 Dec 19 08:03:00 AM,47.663106,-122.315263
1000 Lenora St,Auto Fire Alarm,2025 Dec 19 07:57:00 AM,47.617818,-122.336177
6736 Ellis Ave S,Auto Fire Alarm,2025 Dec 19 07:39:00 AM,47.542567,-122.319374
4th Ave S / S Spokane St,Illegal Burn,2025 Dec 19 07:22:00 AM,47.571421,-122.329077
12TH AVE S / S WELLER ST,Illegal Burn,2025 Dec 19 06:26:00 AM,47.5975,-122.317227
1000 Minor Ave,Auto Fire Alarm,2025 Dec 19 04:47:00 AM,47.609802,-122.324029
9131 California Ave Sw,Auto Fire Alarm,2025 Dec 19 04:41:00 AM,47.521638,-122.387471
100 Taylor Ave N,Auto Fire Alarm,2025 Dec 19 02:59:00 AM,47.618566,-122.346316
Rainier Ave S / S Cloverdale St,Illegal Burn,2025 Dec 19 02:23:00 AM,47.526171,-122.269983
2715 25th Ave S,Auto Fire Alarm,2025 Dec 19 12:01:00 AM,47.579039,-122.300283
2701 Beacon Ave S,Rubbish Fire,2025 Dec 18 11:23:00 PM,47.579411,-122.312322
S Main St / 12th Ave S,Illegal Burn,2025 Dec 18 11:21:00 PM,47.600015,-122.31723
129 11th Ave E,Illegal Burn,2025 Dec 18 10:57:00 PM,47.619093,-122.31822
800 Sw Trenton St,Fire in Building,2025 Dec 18 10:10:00 PM,47.524633,-122.345463
226 7th Ave N,Auto Fire Alarm,2025 Dec 18 10:02:00 PM,47.620035,-122.343653
12TH AVE S / S KING ST,Illegal Burn,2025 Dec 18 09:24:00 PM,47.598338,-122.317228
3546 S Graham St,Illegal Burn,2025 Dec 18 09:05:00 PM,47.546072,-122.286962
Aurora Ave N / N 76th St,Illegal Burn,2025 Dec 18 08:02:00 PM,47.684038,-122.34443
1007 12th Ave S,Illegal Burn,2025 Dec 18 08:00:00 PM,47.59322,-122.317281
169 12th Ave,Illegal Burn,2025 Dec 18 07:16:00 PM,47.602996,-122.316782
2121 7th Ave,Auto Fire Alarm,2025 Dec 18 06:01:00 PM,47.615982,-122.339019
1007 12th Ave S,Illegal Burn,2025 Dec 18 01:27:00 PM,47.59322,-122.317281
6736 Ellis Ave S,Auto Fire Alarm,2025 Dec 18 01:16:00 PM,47.542567,-122.319374
6251 Airport Way S,Rubbish Fire,2025 Dec 18 01:13:00 PM,47.547662,-122.314251
Virginia St / 3rd Ave,Illegal Burn,2025 Dec 18 12:41:00 PM,47.612398,-122.340892
620 8th Ave,Illegal Burn,2025 Dec 18 12:32:00 PM,47.605229,-122.325987
3860 Bridge Way N,Auto Fire Alarm,2025 Dec 18 12:05:00 PM,47.653632,-122.344312
Broadway E / E Republican St,Rubbish Fire,2025 Dec 18 11:36:00 AM,47.623129,-122.320924
1660 S Columbian Way,Auto Fire Alarm,2025 Dec 18 11:36:00 AM,47.561845,-122.310824
1814 Harvard Ave,Auto Fire Alarm,2025 Dec 18 10:43:00 AM,47.617718,-122.322171
1st Ave S / S Lander St,Illegal Burn,2025 Dec 18 10:06:00 AM,47.579811,-122.334201
1419 24th Ave,Auto Fire Alarm,2025 Dec 18 09:03:00 AM,47.613166,-122.301414
1008 Ne 112th St,Auto Fire Alarm,2025 Dec 18 09:00:00 AM,47.709788,-122.317725
8TH AVE S / S KING ST,Illegal Burn,2025 Dec 18 08:52:00 AM,47.598348,-122.322448
1544 Ne 107th St,Rubbish Fire,2025 Dec 18 08:46:00 AM,47.706694,-122.311879
110 Union St,Auto Fire Alarm,2025 Dec 18 08:40:00 AM,47.607875,-122.338992
1550 N 115th St,Auto Fire Alarm,2025 Dec 18 08:15:00 AM,47.712305,-122.339596
9016 Aurora Ave N,Illegal Burn,2025 Dec 18 07:19:00 AM,47.694297,-122.344566
7th Ave S / S Lucile St,Rubbish Fire,2025 Dec 18 05:55:00 AM,47.553368,-122.323909
1400 Madison St,Illegal Burn,2025 Dec 18 04:17:00 AM,47.61073,-122.32181
501 Rainier Ave S,Rubbish Fire,2025 Dec 18 03:11:00 AM,47.598322,-122.3134
Madison St / Boylston Ave,Illegal Burn,2025 Dec 18 02:39:00 AM,47.61073,-122.32181
9999 Holman Rd Nw,Rubbish Fire,2025 Dec 18 02:16:00 AM,47.701637,-122.362244
Lakeview Blvd E / E Blaine St,Car Fire,2025 Dec 18 01:24:00 AM,47.635004,-122.322395
5th Ave N / Harrison St,Illegal Burn,2025 Dec 17 11:54:00 PM,47.622075,-122.347592
10507 Aurora Ave N,Illegal Burn,2025 Dec 17 11:35:00 PM,47.705096,-122.344695
Sb I5 At Albro,Car Fire Freeway,2025 Dec 17 10:50:00 PM,47.551689,-122.317047
1723 Summit Ave,Illegal Burn,2025 Dec 17 10:50:00 PM,47.616656,-122.325547
8320 Lake City Way Ne,Auto Fire Alarm,2025 Dec 17 10:38:00 PM,47.689796,-122.308909
13030 Linden Ave N,Auto Fire Alarm,2025 Dec 17 09:22:00 PM,47.723429,-122.348165
5409 15th Ave Nw,Illegal Burn,2025 Dec 17 09:10:00 PM,47.667954,-122.376216
3824 S Myrtle St,Auto Fire Alarm,2025 Dec 17 09:04:00 PM,47.538881,-122.284496
E Madison St / 27th Ave E,Illegal Burn,2025 Dec 17 08:59:00 PM,47.622589,-122.297502
1201 1st Ave,Auto Fire Alarm,2025 Dec 17 08:35:00 PM,47.606122,-122.337544
401 Broadway E,Auto Fire Alarm,2025 Dec 17 07:51:00 PM,47.621988,-122.320906
1100 23rd Ave,Auto Fire Alarm,2025 Dec 17 07:50:00 PM,47.611734,-122.302601
329 23rd Ave S,Auto Fire Alarm,2025 Dec 17 07:21:00 PM,47.600013,-122.302235
6622 62nd Ave Ne,Auto Fire Alarm,2025 Dec 17 06:56:00 PM,47.676663,-122.261469
Ne Northgate Way / 1st Ave Ne,RV Fire,2025 Dec 17 06:29:00 PM,47.708629,-122.328634
9004 1st Ave Ne,Fire in Building,2025 Dec 17 06:26:00 PM,47.694113,-122.328414
5228 15th Ave Ne,Auto Fire Alarm,2025 Dec 17 04:34:00 PM,47.666621,-122.311913
2nd Ave / Lenora St,Rubbish Fire,2025 Dec 17 04:02:00 PM,47.612502,-122.343053
4th Ave / Denny Way,Rubbish Fire,2025 Dec 17 03:53:00 PM,47.618576,-122.348925
171 12th Ave,Illegal Burn,2025 Dec 17 03:20:00 PM,47.603031,-122.316782
6535 Seaview Ave Nw,Rubbish Fire,2025 Dec 17 03:15:00 PM,47.676031,-122.406369
223 Yesler Way,Illegal Burn,2025 Dec 17 02:19:00 PM,47.601718,-122.331581
615 S Holgate St,Illegal Burn,2025 Dec 17 12:15:00 PM,47.586169,-122.325786
2ND AVE / LENORA ST,Rubbish Fire,2025 Dec 17 11:28:00 AM,47.612502,-122.343053
5433 Leary Ave Nw,Auto Fire Alarm,2025 Dec 17 10:58:00 AM,47.667504,-122.38311
7201 Beacon Ave S,Auto Fire Alarm,2025 Dec 17 10:47:00 AM,47.537852,-122.294804
10545 Aurora Ave N,Rubbish Fire,2025 Dec 17 10:16:00 AM,47.705383,-122.3447
5512 17th Ave Nw,Auto Fire Alarm,2025 Dec 17 10:14:00 AM,47.668758,-122.378884
Ne 100th St / 3rd Ave Ne,Illegal Burn,2025 Dec 17 08:48:00 AM,47.701344,-122.325814
12th Ave / E Spruce St,Illegal Burn,2025 Dec 17 07:00:00 AM,47.603514,-122.316782
4316 S Genesee St,Rubbish Fire,2025 Dec 17 06:28:00 AM,47.564086,-122.279299
612 Nw 65th St,Illegal Burn,2025 Dec 17 06:06:00 AM,47.675991,-122.364047
5701 Seaview Ave Nw,Rubbish Fire,2025 Dec 17 05:37:00 AM,47.670431,-122.404678
3621 33rd Ave S,Auto Fire Alarm,2025 Dec 17 05:31:00 AM,47.571408,-122.291001
1313 Ne 42nd St,Illegal Burn,2025 Dec 17 04:58:00 AM,47.658327,-122.31421
14115 Aurora Ave N,Auto Fire Alarm,2025 Dec 17 04:09:00 AM,47.731129,-122.345064
607 3rd Ave,Auto Fire Alarm,2025 Dec 17 03:47:00 AM,47.602813,-122.331449
3900 Sw Alaska St,Illegal Burn,2025 Dec 17 02:31:00 AM,47.561107,-122.381456
12th Ave S / S Jackson St,Illegal Burn,2025 Dec 16 11:46:00 PM,47.599187,-122.317225
S Washington St / 4th Ave S,Illegal Burn,2025 Dec 16 10:06:00 PM,47.600875,-122.328963
8045 19th Ave Ne,Illegal Burn,2025 Dec 16 09:55:00 PM,47.687079,-122.307857
6600 Roosevelt Way Ne,Auto Fire Alarm,2025 Dec 16 08:38:00 PM,47.676554,-122.317373
116 Pike St,Auto Fire Alarm,2025 Dec 16 07:43:00 PM,47.609058,-122.339447
531 Queen Anne Ave N,Illegal Burn,2025 Dec 16 07:33:00 PM,47.623677,-122.356717
2209 1st Ave,Auto Fire Alarm,2025 Dec 16 07:23:00 PM,47.612669,-122.345319
9018 24th Ave Nw,Auto Fire Alarm,2025 Dec 16 07:22:00 PM,47.694323,-122.387572
8704 Greenwood Ave N,Auto Fire Alarm,2025 Dec 16 07:21:00 PM,47.692436,-122.355321
4111 Stone Way N,Auto Fire Alarm,2025 Dec 16 04:18:00 PM,47.656686,-122.342375
Martin Luther King Jr Way E / E Arthur Pl,Illegal Burn,2025 Dec 16 03:59:00 PM,47.622816,-122.296213
5350 S Fountain St,Auto Fire Alarm,2025 Dec 16 03:39:00 PM,47.503677,-122.266838
325 7th Ave N,Auto Fire Alarm,2025 Dec 16 03:23:00 PM,47.621179,-122.343683
1502 E Yesler Way,Auto Fire Alarm,2025 Dec 16 03:07:00 PM,47.601686,-122.31285
4523 8th Ave Ne,Auto Fire Alarm,2025 Dec 16 02:30:00 PM,47.661513,-122.319566
6717 Roosevelt Way Ne,Auto Fire Alarm,2025 Dec 16 02:20:00 PM,47.677402,-122.317385
S Spokane St / 33rd Ave S,Illegal Burn,2025 Dec 16 01:52:00 PM,47.571582,-122.290998
5th Ave / Terrace St,Illegal Burn,2025 Dec 16 01:43:00 PM,47.602272,-122.327883
4207 SW GENESEE ST,Auto Fire Alarm,2025 Dec 16 01:30:00 PM,47.564685,-122.385534
5816 15th Ave Nw,Rubbish Fire,2025 Dec 16 12:45:00 PM,47.671013,-122.376212
1555 Airport Way S,Auto Fire Alarm,2025 Dec 16 10:13:00 AM,47.589455,-122.322013
9818 5th Ave Ne,Auto Fire Alarm,2025 Dec 16 10:00:00 AM,47.700495,-122.323118
123 N 79TH ST,Auto Fire Alarm,2025 Dec 16 09:44:00 AM,47.686205,-122.357664
123 N 79th St,Auto Fire Alarm,2025 Dec 16 09:37:00 AM,47.686205,-122.357664
937 N 96th St,Auto Fire Alarm,2025 Dec 16 07:36:00 AM,47.698721,-122.34681
15th Ave E / E Prospect St,Rubbish Fire,2025 Dec 16 07:01:00 AM,47.628403,-122.312548
333 Pontius Ave N,Rubbish Fire,2025 Dec 16 06:39:00 AM,47.621193,-122.331706
225 14th Ave E,Auto Fire Alarm,2025 Dec 16 06:36:00 AM,47.620242,-122.314322
219 1ST AVE S,Illegal Burn,2025 Dec 16 05:24:00 AM,47.600719,-122.334183
924 N 143rd St,Auto Fire Alarm,2025 Dec 16 04:55:00 AM,47.732314,-122.346635
1101 2nd Ave,Auto Fire Alarm,2025 Dec 16 04:38:00 AM,47.605873,-122.335782
23rd Ave S / S Jackson St,Rubbish Fire,2025 Dec 16 04:12:00 AM,47.599281,-122.302233
11650 Beacon Ave S,Auto Fire Alarm,2025 Dec 16 04:06:00 AM,47.498464,-122.263967
17th Ave Nw / Nw 54th St,Car Fire,2025 Dec 16 03:11:00 AM,47.667895,-122.378885
413 Ne 70th St,Illegal Burn,2025 Dec 16 02:30:00 AM,47.67914,-122.324169
1302 E Yesler Way,Auto Fire Alarm,2025 Dec 16 01:07:00 AM,47.601688,-122.314914
7224 1st Ave S,Fire in Building,2025 Dec 16 12:36:00 AM,47.534351,-122.332228
2001 6th Ave,Auto Fire Alarm,2025 Dec 16 12:23:00 AM,47.614391,-122.338314
11650 Beacon Ave S,Auto Fire Alarm,2025 Dec 16 12:21:00 AM,47.498464,-122.263967
1609 Harvard Ave,Auto Fire Alarm,2025 Dec 15 11:27:00 PM,47.615321,-122.322132
118 Republican St,Auto Fire Alarm,2025 Dec 15 11:12:00 PM,47.62327,-122.354925
1800 Yale Ave,Auto Fire Alarm,2025 Dec 15 11:00:00 PM,47.617505,-122.329699
417 2nd Ave W,Auto Fire Alarm,2025 Dec 15 10:44:00 PM,47.622309,-122.359339
607 3rd Ave,Auto Fire Alarm,2025 Dec 15 10:22:00 PM,47.602813,-122.331449
800 Jefferson St,Auto Fire Alarm,2025 Dec 15 10:13:00 PM,47.604315,-122.32531
4730 California Ave Sw,Auto Fire Alarm,2025 Dec 15 10:08:00 PM,47.560561,-122.386794
4th Ave S / S Spokane St,Rubbish Fire,2025 Dec 15 09:39:00 PM,47.571421,-122.329077
13732 Midvale Ave N,Auto Fire Alarm,2025 Dec 15 07:38:00 PM,47.72923,-122.343692
2112 Ne 137th St,Illegal Burn,2025 Dec 15 07:35:00 PM,47.728414,-122.305986
Roosevelt Way Ne / Ne 50th St,Illegal Burn,2025 Dec 15 07:26:00 PM,47.664937,-122.317404
150 Ne 95th St,Auto Fire Alarm,2025 Dec 15 06:56:00 PM,47.697726,-122.327776
21 W Comstock St,Auto Fire Alarm,2025 Dec 15 06:05:00 PM,47.63044,-122.356874
6420 California Ave Sw,Auto Fire Alarm,2025 Dec 15 04:45:00 PM,47.545489,-122.387208
223 Yesler Way,Auto Fire Alarm,2025 Dec 15 04:21:00 PM,47.601718,-122.331581
1320 Mercer St,Auto Fire Alarm,2025 Dec 15 03:59:00 PM,47.624276,-122.330183
800 4th Ave N,Auto Fire Alarm,2025 Dec 15 03:53:00 PM,47.626286,-122.348863
2203 Airport Way S,Auto Fire Alarm,2025 Dec 15 03:43:00 PM,47.583722,-122.321395
1594 Alki Ave Sw,Auto Fire Alarm,2025 Dec 15 03:14:00 PM,47.589138,-122.394549
1594 Alki Ave Sw,Auto Fire Alarm,2025 Dec 15 03:05:00 PM,47.589138,-122.394549
3036 16th Ave W,Auto Fire Alarm,2025 Dec 15 02:57:00 PM,47.647505,-122.377493
2245 Nw 57th St,Auto Fire Alarm,2025 Dec 15 02:50:00 PM,47.670184,-122.385375
4535 18th Ave Ne,Auto Fire Alarm,2025 Dec 15 01:29:00 PM,47.661566,-122.308378
3621 33rd Ave S,Auto Fire Alarm,2025 Dec 15 01:09:00 PM,47.571408,-122.291001
6955 Delridge Way Sw,Auto Fire Alarm,2025 Dec 15 12:47:00 PM,47.540392,-122.360774
4239 8th Ave Ne,Auto Fire Alarm,2025 Dec 15 12:24:00 PM,47.658287,-122.319788
3295 Sw Avalon Way,Auto Fire Alarm,2025 Dec 15 12:18:00 PM,47.56411,-122.373469
1141 Nw 50th St,Auto Fire Alarm,2025 Dec 15 11:28:00 AM,47.665043,-122.371144
3512 S Juneau St,Auto Fire Alarm,2025 Dec 15 09:37:00 AM,47.549772,-122.288795
937 N 96th St,Auto Fire Alarm,2025 Dec 15 09:29:00 AM,47.698721,-122.34681
1253 S Jackson St,Auto Fire Alarm,2025 Dec 15 08:58:00 AM,47.599193,-122.316407
830 4th Ave S,Auto Fire Alarm,2025 Dec 15 08:34:00 AM,47.596157,-122.329046
204 Ne 94th St,Auto Fire Alarm,2025 Dec 15 07:34:00 AM,47.69681,-122.327101
331 Bellevue Ave E,Rubbish Fire,2025 Dec 15 07:15:00 AM,47.621184,-122.326581
4902 Aurora Ave N,Rubbish Fire,2025 Dec 15 06:48:00 AM,47.664295,-122.34718
Sw Snoqualmie St / 37th Ave Sw,Illegal Burn,2025 Dec 15 06:46:00 AM,47.562036,-122.378773
34th Ave S / S Alaska St,Illegal Burn,2025 Dec 15 05:51:00 AM,47.560759,-122.289924
219 1st Ave S,Auto Fire Alarm,2025 Dec 15 05:40:00 AM,47.600719,-122.334183
620 Terry Ave,Auto Fire Alarm,2025 Dec 15 05:16:00 AM,47.606157,-122.323768
2245 Nw 57th St,Auto Fire Alarm,2025 Dec 15 04:57:00 AM,47.670184,-122.385375
618 John St,Auto Fire Alarm,2025 Dec 15 04:41:00 AM,47.619728,-122.344763
Seneca St / Hubbell Pl,Rubbish Fire,2025 Dec 15 04:32:00 AM,47.609015,-122.330631
1635 8TH AVE,Auto Fire Alarm,2025 Dec 15 03:31:00 AM,47.613235,-122.33331
4821 S Fontanelle St,Auto Fire Alarm,2025 Dec 15 02:11:00 AM,47.535923,-122.272458
411 Bellevue Ave E,Illegal Burn,2025 Dec 15 01:43:00 AM,47.6221,-122.326586
215 Aloha St,Dumpster Fire,2025 Dec 15 12:25:00 AM,47.627178,-122.352571
201 20th Ave S,Illegal Burn,2025 Dec 14 08:14:00 PM,47.600826,-122.306354
212 Alaskan Way S,Auto Fire Alarm,2025 Dec 14 07:07:00 PM,47.600779,-122.335637
2615 25th Ave S,Auto Fire Alarm,2025 Dec 14 06:02:00 PM,47.579528,-122.300279
5444 Delridge Way Sw,Auto Fire Alarm,2025 Dec 14 05:21:00 PM,47.553321,-122.362969
422 11TH AVE E,Auto Fire Alarm,2025 Dec 14 05:17:00 PM,47.622217,-122.317819
533 3rd Ave W,Auto Fire Alarm,2025 Dec 14 05:12:00 PM,47.623717,-122.360635
5701 Seaview Ave Nw,Illegal Burn,2025 Dec 14 04:58:00 PM,47.670431,-122.404678
208 JAMES ST,Rubbish Fire,2025 Dec 14 03:23:00 PM,47.602344,-122.332428
707 Terry Ave,Auto Fire Alarm,2025 Dec 14 03:03:00 PM,47.606777,-122.324334
7901 Martin Luther King Jr Way S,Auto Fire Alarm,2025 Dec 14 01:41:00 PM,47.531537,-122.280793
4400 Stone Way N,Auto Fire Alarm,2025 Dec 14 12:53:00 PM,47.65996,-122.342217
1215 8th Ave,Dumpster Fire,2025 Dec 14 12:02:00 PM,47.609522,-122.329914
530 Melrose Ave E,Auto Fire Alarm,2025 Dec 14 11:34:00 AM,47.623472,-122.327876
9TH AVE S / S JACKSON ST,Rubbish Fire,2025 Dec 14 10:57:00 AM,47.599191,-122.321025
3443 West Marginal Way Sw,Auto Fire Alarm,2025 Dec 14 10:48:00 AM,47.573203,-122.363438
899 W Olympic Pl,Illegal Burn,2025 Dec 14 09:57:00 AM,47.62874,-122.368832
2713 E MADISON ST,Illegal Burn,2025 Dec 14 09:01:00 AM,47.62301,-122.296879
410 2nd Ave Et S,Auto Fire Alarm,2025 Dec 14 08:59:00 AM,47.601202,-122.331511
3021 Sw Bradford St,Auto Fire Alarm,2025 Dec 14 08:26:00 AM,47.569237,-122.371429
412 11th Ave,Illegal Burn,2025 Dec 14 07:39:00 AM,47.605312,-122.318108
917 E YESLER WAY,Rubbish Fire,2025 Dec 14 06:30:00 AM,47.6017,-122.320537
3443 West Marginal Way Sw,Auto Fire Alarm,2025 Dec 14 05:34:00 AM,47.573203,-122.363438
4821 S Fontanelle St,Auto Fire Alarm,2025 Dec 14 04:11:00 AM,47.535923,-122.272458
1911 22nd Ave S,Auto Fire Alarm,2025 Dec 14 03:14:00 AM,47.586234,-122.304237
1101 2nd Ave,Auto Fire Alarm,2025 Dec 14 02:40:00 AM,47.605873,-122.335782
1800 E Olive Way,Rubbish Fire,2025 Dec 14 02:33:00 AM,47.619898,-122.322206
1000 8th Ave,Auto Fire Alarm,2025 Dec 14 02:20:00 AM,47.607945,-122.328471
509 3rd Ave,Auto Fire Alarm,2025 Dec 14 12:30:00 AM,47.602114,-122.330809
12th Ave S / S Charles St,Illegal Burn,2025 Dec 14 12:23:00 AM,47.593834,-122.317281
8500 15th Ave Nw,Illegal Burn,2025 Dec 13 11:21:00 PM,47.690609,-122.376806
923 Nw 54th St,Rubbish Fire,2025 Dec 13 11:21:00 PM,47.667885,-122.368845
2500 W Marina Pl,Auto Fire Alarm,2025 Dec 13 11:04:00 PM,47.633569,-122.386988
14101 LINDEN AVE N,Rubbish Fire,2025 Dec 13 10:33:00 PM,47.73104,-122.347764
320 Summit Ave E,Dumpster Fire,2025 Dec 13 08:30:00 PM,47.621057,-122.325301
Nw 46th St / Leary Way Nw,Rubbish Fire,2025 Dec 13 08:16:00 PM,47.662195,-122.367865
EAST GREEN LAKE WAY N / ASHWORTH AVE N,Illegal Burn,2025 Dec 13 07:50:00 PM,47.672184,-122.33762
1601 5th Ave,Auto Fire Alarm,2025 Dec 13 07:15:00 PM,47.611672,-122.336484
515 Harvard Ave E,Rubbish Fire,2025 Dec 13 07:14:00 PM,47.623296,-122.322005
5700 24th Ave Nw,Dumpster Fire,2025 Dec 13 07:10:00 PM,47.670187,-122.387587
334 1ST AVE N,Car Fire,2025 Dec 13 06:42:00 PM,47.621329,-122.355431
WARREN AVE N / JOHN ST,Car Fire,2025 Dec 13 06:37:00 PM,47.619764,-122.354138
1661 HARBOR AVE SW,Fire in Building,2025 Dec 13 06:21:00 PM,47.589012,-122.380835
Nw 57th St / 24th Ave Nw,Rubbish Fire,2025 Dec 13 06:07:00 PM,47.670187,-122.387587
400 Fairview Ave N,Auto Fire Alarm,2025 Dec 13 06:02:00 PM,47.622,-122.334274
731 N 35th St,Auto Fire Alarm,2025 Dec 13 05:37:00 PM,47.650464,-122.349461
2504 Alki Ave Sw,Illegal Burn,2025 Dec 13 05:36:00 PM,47.581218,-122.405337
2225 4th Ave,Auto Fire Alarm,2025 Dec 13 04:31:00 PM,47.614788,-122.342952
4422 Francis Ave N,Auto Fire Alarm,2025 Dec 13 04:26:00 PM,47.660472,-122.353322
306 S Washington St,Illegal Burn,2025 Dec 13 03:27:00 PM,47.600877,-122.330188
6113 Roosevelt Way Ne,Fire in Building,2025 Dec 13 02:44:00 PM,47.67281,-122.317364
241 Summit Ave E,Illegal Burn,2025 Dec 13 02:38:00 PM,47.620134,-122.325296
3019 S Angeline St,Auto Fire Alarm,2025 Dec 13 02:35:00 PM,47.559372,-122.293465
11222 Greenwood Ave N,Auto Fire Alarm,2025 Dec 13 02:22:00 PM,47.710657,-122.355495
12360 Lake City Way Ne,Auto Fire Alarm,2025 Dec 13 02:09:00 PM,47.718989,-122.295405
1140 N 94th St,Auto Fire Alarm,2025 Dec 13 01:49:00 PM,47.697082,-122.344054
3443 West Marginal Way Sw,Auto Fire Alarm,2025 Dec 13 01:17:00 PM,47.573203,-122.363438
718 N 143rd St,Fire in Building,2025 Dec 13 01:12:00 PM,47.732314,-122.350236
6113 Roosevelt Way Ne,Fire in Building,2025 Dec 13 01:05:00 PM,47.67281,-122.317364
1802 Sw Holden St,Car Fire,2025 Dec 13 01:04:00 PM,47.533686,-122.35774
1007 12th Ave S,Rubbish Fire,2025 Dec 13 12:31:00 PM,47.59322,-122.317281
201 Yesler Way,Auto Fire Alarm,2025 Dec 13 12:20:00 PM,47.601719,-122.331966
200 Ne 65th St,Auto Fire Alarm,2025 Dec 13 11:57:00 AM,47.675925,-122.327367
6533 Seaview Ave Nw,Auto Fire Alarm,2025 Dec 13 11:53:00 AM,47.676019,-122.406368
500 Wall St,Auto Fire Alarm,2025 Dec 13 11:23:00 AM,47.617356,-122.345312
1766 Nw Market St,Illegal Burn,2025 Dec 13 11:12:00 AM,47.668675,-122.381731
3443 W Marginal Way Sw,Auto Fire Alarm,2025 Dec 13 09:45:00 AM,47.575379,-122.362238
2312 3rd Ave,Auto Fire Alarm,2025 Dec 13 09:11:00 AM,47.614791,-122.34494
513 S Main St,Illegal Burn,2025 Dec 13 09:09:00 AM,47.600034,-122.32749
725 9th Ave,Auto Fire Alarm,2025 Dec 13 08:15:00 AM,47.606444,-122.325563
2807 S Mcclellan St,Auto Fire Alarm,2025 Dec 13 08:09:00 AM,47.578347,-122.296116
2870 S Hanford St,Auto Fire Alarm,2025 Dec 13 06:59:00 AM,47.574853,-122.295888
3801 Delridge Way Sw,Rubbish Fire,2025 Dec 13 06:46:00 AM,47.570129,-122.362039
Occidental Ave S / S Main St,Rubbish Fire,2025 Dec 13 06:40:00 AM,47.600043,-122.332879
1600 S Lane St,Rubbish Fire,2025 Dec 13 05:05:00 AM,47.59665,-122.311586
1237 S Jackson St,Rubbish Fire,2025 Dec 13 04:56:00 AM,47.599191,-122.316654
4925 Corson Ave S,Auto Fire Alarm,2025 Dec 13 03:55:00 AM,47.558264,-122.317964
1240 S Jackson St,Dumpster Fire,2025 Dec 13 01:59:00 AM,47.599192,-122.316607
1251 HARRISON ST,Illegal Burn,2025 Dec 12 10:32:00 PM,47.621968,-122.331684
12000 15th Ave Ne,Auto Fire Alarm,2025 Dec 12 10:18:00 PM,47.71579,-122.312556
3621 33rd Ave S,Auto Fire Alarm,2025 Dec 12 10:18:00 PM,47.571408,-122.291001
6622 62nd Ave Ne,Auto Fire Alarm,2025 Dec 12 09:54:00 PM,47.676663,-122.261469
12th Ave S / S Judkins St,Illegal Burn,2025 Dec 12 07:12:00 PM,47.59154,-122.317281
25th Ave Ne / Ne Blakeley St,Rubbish Fire,2025 Dec 12 07:01:00 PM,47.666267,-122.300605
937 N 96th St,Auto Fire Alarm,2025 Dec 12 07:01:00 PM,47.698721,-122.34681
2720 S Andover St,Fire in Building,2025 Dec 12 06:10:00 PM,47.568112,-122.297366
1412 Summit Ave,Auto Fire Alarm,2025 Dec 12 06:08:00 PM,47.613104,-122.325506
1925 Airport Way S,Rubbish Fire,2025 Dec 12 05:59:00 PM,47.585842,-122.321393
2611 S Dearborn St,Auto Fire Alarm,2025 Dec 12 05:54:00 PM,47.595541,-122.298643
6846 Oswego Pl Ne,Auto Fire Alarm,2025 Dec 12 05:30:00 PM,47.678165,-122.322737
1902 2nd Ave,Auto Fire Alarm,2025 Dec 12 04:51:00 PM,47.610972,-122.340465
2410 W Manor Pl,Auto Fire Alarm,2025 Dec 12 03:13:00 PM,47.653933,-122.387564
3515 Woodland Park Ave N,Auto Fire Alarm,2025 Dec 12 02:33:00 PM,47.649775,-122.344031
3222 Nw 54th St,Dumpster Fire,2025 Dec 12 02:02:00 PM,47.667456,-122.399648
1705 Ne Pacific St,Auto Fire Alarm,2025 Dec 12 01:35:00 PM,47.651545,-122.309599
Broadway E / E Thomas St,Illegal Burn,2025 Dec 12 01:30:00 PM,47.621076,-122.320892
551 ELLIOTT AVE W,Brush Fire,2025 Dec 12 01:00:00 PM,47.624155,-122.365135
725 9th Ave,Auto Fire Alarm,2025 Dec 12 12:35:00 PM,47.606444,-122.325563
4106 Stone Way N,Auto Fire Alarm,2025 Dec 12 12:13:00 PM,47.65692,-122.342364
4536 20th Ave Ne,Auto Fire Alarm,2025 Dec 12 11:20:00 AM,47.661579,-122.306526
2501 E Madison St,Illegal Burn,2025 Dec 12 11:15:00 AM,47.620986,-122.299861
5230 39th Ave S,Auto Fire Alarm,2025 Dec 12 11:08:00 AM,47.555178,-122.283484
4536 20TH AVE NE,Auto Fire Alarm,2025 Dec 12 10:43:00 AM,47.661579,-122.306526
410 2nd Ave Et S,Auto Fire Alarm,2025 Dec 12 10:21:00 AM,47.601202,-122.331511
Nb I5 To 145,Car Fire Freeway,2025 Dec 12 09:38:00 AM,47.72959,-122.324067
12345 Roosevelt Way Ne,Auto Fire Alarm,2025 Dec 12 08:54:00 AM,47.71804,-122.31809
4622 35th Ave Sw,Illegal Burn,2025 Dec 12 08:54:00 AM,47.561817,-122.376205
1602 15th Ave W,Illegal Burn,2025 Dec 12 07:58:00 AM,47.633506,-122.376194
N 97th St / Ashworth Ave N,Illegal Burn,2025 Dec 12 07:39:00 AM,47.699604,-122.339725
Belmont Ave / E Union St,Illegal Burn,2025 Dec 12 07:19:00 AM,47.612987,-122.324444
937 N 96th St,Fire in Building,2025 Dec 12 07:06:00 AM,47.698721,-122.34681
Roosevelt Way Ne / Ne 42nd St,Rubbish Fire,2025 Dec 12 06:53:00 AM,47.657514,-122.317802
1711 Nw 61st St,Illegal Burn,2025 Dec 12 05:52:00 AM,47.673092,-122.378991
601 Union St,Auto Fire Alarm,2025 Dec 12 05:14:00 AM,47.610155,-122.333545
1624 Boren Ave,Auto Fire Alarm,2025 Dec 12 03:59:00 AM,47.61469,-122.330035
1125 E Olive St,Auto Fire Alarm,2025 Dec 12 02:55:00 AM,47.616425,-122.317845
2515 Rainier Ave S,Illegal Burn,2025 Dec 12 02:03:00 AM,47.58086,-122.300065
80 Stewart St,Auto Fire Alarm,2025 Dec 12 01:35:00 AM,47.609799,-122.34195
800 Jefferson St,Auto Fire Alarm,2025 Dec 12 01:16:00 AM,47.604315,-122.32531
1610 16th Ave,Auto Fire Alarm,2025 Dec 12 12:55:00 AM,47.615385,-122.311461
Wallingford Ave N / N 85th St,Car Fire,2025 Dec 11 10:09:00 PM,47.690501,-122.33644
11024 Bartlett Ave Ne,FIREWATCH,2025 Dec 11 09:38:00 PM,47.708761,-122.281536
100 Melrose Ave E,Auto Fire Alarm,2025 Dec 11 07:48:00 PM,47.618497,-122.327854
1201 Mercer St,Auto Fire Alarm,2025 Dec 11 07:31:00 PM,47.624269,-122.33298
11024 Bartlett Ave Ne,Fire in Building,2025 Dec 11 06:07:00 PM,47.708761,-122.281536
10th Ave S / S Main St,Illegal Burn,2025 Dec 11 06:06:00 PM,47.600132,-122.319711
15th Ave Nw / Nw 52nd St,Rubbish Fire,2025 Dec 11 04:46:00 PM,47.666433,-122.376218
2215 1st Ave,Auto Fire Alarm,2025 Dec 11 04:03:00 PM,47.612716,-122.345399
6955 Delridge Way Sw,Auto Fire Alarm,2025 Dec 11 03:51:00 PM,47.540392,-122.360774
1201 Ne Campus Pkwy,Auto Fire Alarm,2025 Dec 11 03:20:00 PM,47.656013,-122.315699
212 Alaskan Way S,Auto Fire Alarm,2025 Dec 11 03:17:00 PM,47.600779,-122.335637
1501 Nw 59th St,Auto Fire Alarm,2025 Dec 11 03:02:00 PM,47.67163,-122.376212
5043 Brooklyn Ave Ne,Auto Fire Alarm,2025 Dec 11 02:51:00 PM,47.665234,-122.314205
3926 Aurora Ave N,Auto Fire Alarm,2025 Dec 11 02:35:00 PM,47.654462,-122.347201
425 Harvard Ave E,Dumpster Fire,2025 Dec 11 02:11:00 PM,47.622273,-122.322022
S Albro Pl / Corgiat Dr S,Rubbish Fire,2025 Dec 11 01:58:00 PM,47.548167,-122.312515
9600 College Way N,Auto Fire Alarm,2025 Dec 11 01:51:00 PM,47.698678,-122.33505
35th Ave Sw / Sw Alaska St,Rubbish Fire,2025 Dec 11 01:47:00 PM,47.561066,-122.376216
155 Mercer St,Auto Fire Alarm,2025 Dec 11 01:32:00 PM,47.624576,-122.353962
2024 3rd Ave,Auto Fire Alarm,2025 Dec 11 01:19:00 PM,47.612578,-122.341197
600 N 130th St,Auto Fire Alarm,2025 Dec 11 01:04:00 PM,47.723223,-122.351624
904 Sturgus Ave S,Illegal Burn,2025 Dec 11 12:26:00 PM,47.594361,-122.315087
424 Minor Ave N,Auto Fire Alarm,2025 Dec 11 12:20:00 PM,47.622242,-122.332995
533 3rd Ave W,Auto Fire Alarm,2025 Dec 11 11:46:00 AM,47.623717,-122.360635
WB I90 AT RAINIER,Brush Fire,2025 Dec 11 11:17:00 AM,47.590802,-122.309163
410 2nd Ave Et S,Auto Fire Alarm,2025 Dec 11 10:53:00 AM,47.601202,-122.331511
25 S Hanford St,Illegal Burn,2025 Dec 11 10:51:00 AM,47.575576,-122.338492
12350 32nd Ave Ne,Rubbish Fire,2025 Dec 11 10:30:00 AM,47.717832,-122.293963
5th Ave S / S Washington St,Illegal Burn,2025 Dec 11 10:05:00 AM,47.600873,-122.32766
2020 S Jackson St,Auto Fire Alarm,2025 Dec 11 09:15:00 AM,47.599261,-122.305296
800 Maynard Ave S,Auto Fire Alarm,2025 Dec 11 08:09:00 AM,47.595835,-122.325068
650 S INDUSTRIAL WAY,Auto Fire Alarm,2025 Dec 11 07:52:00 AM,47.566048,-122.324986
1102 8th Ave,Auto Fire Alarm,2025 Dec 11 07:49:00 AM,47.608665,-122.329131
221 S Washington St,Auto Fire Alarm,2025 Dec 11 07:31:00 AM,47.600878,-122.331097
800 Jefferson St,Auto Fire Alarm,2025 Dec 11 07:28:00 AM,47.604315,-122.32531
TERRACE ST / 5TH AVE,Illegal Burn,2025 Dec 11 06:45:00 AM,47.602272,-122.327883
1911 Aurora Ave N,Car Fire,2025 Dec 11 05:59:00 AM,47.640453,-122.346334
1018 S Jackson St,Rubbish Fire,2025 Dec 11 05:58:00 AM,47.599184,-122.31942
935 Golf Dr S,Car Fire,2025 Dec 11 05:17:00 AM,47.59407,-122.316226
1425 Western Ave,Rubbish Fire,2025 Dec 11 04:51:00 AM,47.607607,-122.340438
3651 34th Ave S,Auto Fire Alarm,2025 Dec 11 04:14:00 AM,47.571115,-122.28993
1505 Westlake Ave N,Auto Fire Alarm,2025 Dec 11 03:55:00 AM,47.632365,-122.340932
925 11th Ave E,Illegal Burn,2025 Dec 11 03:42:00 AM,47.627009,-122.318048
14115 Aurora Ave N,Auto Fire Alarm,2025 Dec 11 02:07:00 AM,47.731129,-122.345064
1102 8th Ave,Auto Fire Alarm,2025 Dec 11 01:59:00 AM,47.608665,-122.329131
720 3rd Ave,Auto Fire Alarm,2025 Dec 10 10:48:00 PM,47.603622,-122.332188
5th Ave S / S Washington St,Illegal Burn,2025 Dec 10 09:30:00 PM,47.600873,-122.32766
1121 S Bailey St,Illegal Burn,2025 Dec 10 07:53:00 PM,47.547616,-122.31867
1102 8th Ave,Auto Fire Alarm,2025 Dec 10 07:37:00 PM,47.608665,-122.329131
401 NE NORTHLAKE WAY,Auto Fire Alarm,2025 Dec 10 07:10:00 PM,47.653815,-122.324577
1502 E Yesler Way,Auto Fire Alarm,2025 Dec 10 06:07:00 PM,47.601686,-122.31285
311 Bellevue Ave E,Auto Fire Alarm,2025 Dec 10 05:50:00 PM,47.620949,-122.32658
1413 15th Ave,Auto Fire Alarm,2025 Dec 10 05:03:00 PM,47.613059,-122.312779
1902 2nd Ave,Auto Fire Alarm,2025 Dec 10 04:27:00 PM,47.610972,-122.340465
800 E Denny Way,Auto Fire Alarm,2025 Dec 10 03:00:00 PM,47.618733,-122.322187
121 Vine St,Auto Fire Alarm,2025 Dec 10 02:56:00 PM,47.615391,-122.349498
914 E Harrison St,Auto Fire Alarm,2025 Dec 10 02:22:00 PM,47.621987,-122.320766
2720 Ne 85th St,Auto Fire Alarm,2025 Dec 10 02:14:00 PM,47.690248,-122.298446
157 12th Ave,Auto Fire Alarm,2025 Dec 10 02:01:00 PM,47.60279,-122.316782
121 Vine St,Auto Fire Alarm,2025 Dec 10 01:47:00 PM,47.615391,-122.349498
925 11th Ave E,Rubbish Fire,2025 Dec 10 01:15:00 PM,47.627009,-122.318048
500 S Portland St,Auto Fire Alarm,2025 Dec 10 12:13:00 PM,47.533419,-122.328143
1815 Bellevue Ave,Auto Fire Alarm,2025 Dec 10 12:11:00 PM,47.617848,-122.326761
12345 Roosevelt Way Ne,Auto Fire Alarm,2025 Dec 10 12:10:00 PM,47.71804,-122.31809
698 Seneca St,Illegal Burn,2025 Dec 10 11:31:00 AM,47.609015,-122.330631
2105 5th Ave,Auto Fire Alarm,2025 Dec 10 10:57:00 AM,47.614527,-122.340527
206 3rd Ave S,Illegal Burn,2025 Dec 10 09:55:00 AM,47.600825,-122.330272
206 3rd Ave S,Illegal Burn,2025 Dec 10 09:43:00 AM,47.600825,-122.330272
12th Ave E / E Denny Way,Rubbish Fire,2025 Dec 10 08:05:00 AM,47.618768,-122.31691
3202 W LYNN ST,Auto Fire Alarm,2025 Dec 10 07:31:00 AM,47.639153,-122.398343
1425 Western Ave,Illegal Burn,2025 Dec 10 06:38:00 AM,47.607607,-122.340438
1811 Eastlake Ave,Auto Fire Alarm,2025 Dec 10 04:47:00 AM,47.618002,-122.329182
2615 25th Ave S,Auto Fire Alarm,2025 Dec 10 02:49:00 AM,47.579528,-122.300279
4506 17th Ave Ne,Auto Fire Alarm,2025 Dec 10 02:20:00 AM,47.661314,-122.309512
1101 2nd Ave,Auto Fire Alarm,2025 Dec 10 02:17:00 AM,47.605873,-122.335782
861 POPLAR PL S,Auto Fire Alarm,2025 Dec 10 01:48:00 AM,47.595068,-122.312253
1922 9th Ave,Auto Fire Alarm,2025 Dec 10 01:19:00 AM,47.615781,-122.334715
4251 Aurora Ave N,Auto Fire Alarm,2025 Dec 09 11:03:00 PM,47.65932,-122.347386
210 Alaskan Way S,Auto Fire Alarm,2025 Dec 09 08:43:00 PM,47.600593,-122.335915
1301 1st Ave,Auto Fire Alarm,2025 Dec 09 06:57:00 PM,47.606835,-122.338197
607 3rd Ave,Auto Fire Alarm,2025 Dec 09 06:14:00 PM,47.602813,-122.331449
21st Ave S / S Washington St,Illegal Burn,2025 Dec 09 04:37:00 PM,47.600832,-122.305048
35th Ave Ne / Erickson Pl Ne,RV Fire,2025 Dec 09 04:08:00 PM,47.726464,-122.290907
Minor Ave / Stewart St,Rubbish Fire,2025 Dec 09 03:28:00 PM,47.61761,-122.331859
516 3rd Ave,Auto Fire Alarm,2025 Dec 09 02:59:00 PM,47.602165,-122.330856
13305 1st Ave Ne,Auto Fire Alarm,2025 Dec 09 02:24:00 PM,47.725147,-122.328892
1761 Rainier Ave S,Illegal Burn,2025 Dec 09 01:29:00 PM,47.587392,-122.305012
1032 S Jackson St,Rubbish Fire,2025 Dec 09 12:27:00 PM,47.599184,-122.319249
5826 16th Ave Ne,Illegal Burn,2025 Dec 09 12:25:00 PM,47.671754,-122.310769
2215 1st Ave,Auto Fire Alarm,2025 Dec 09 11:44:00 AM,47.612716,-122.345399
12345 Roosevelt Way Ne,Auto Fire Alarm,2025 Dec 09 09:43:00 AM,47.71804,-122.31809
4410 29th Ave S,Auto Fire Alarm,2025 Dec 09 09:28:00 AM,47.563067,-122.29619
1705 Ne Pacific St,Auto Fire Alarm,2025 Dec 09 09:22:00 AM,47.651545,-122.309599
S Albro Pl / Corgiat Dr S,Illegal Burn,2025 Dec 09 09:22:00 AM,47.548167,-122.312515
140 4th Ave N,Car Fire,2025 Dec 09 09:14:00 AM,47.619041,-122.348899
9021 17th Ave Sw,Car Fire,2025 Dec 09 06:27:00 AM,47.522673,-122.356451
2600 2nd Ave,Auto Fire Alarm,2025 Dec 09 06:21:00 AM,47.615914,-122.348823
828 Rainier Ave S,Illegal Burn,2025 Dec 09 05:48:00 AM,47.594334,-122.31035
E John St / 15th Ave E,Illegal Burn,2025 Dec 09 03:26:00 AM,47.619967,-122.312719
330 3rd Ave W,Auto Fire Alarm,2025 Dec 09 01:52:00 AM,47.621222,-122.360653
1765 22nd Ave S,Rubbish Fire,2025 Dec 09 01:02:00 AM,47.587474,-122.303859
2019 Nw Market St,Auto Fire Alarm,2025 Dec 09 12:35:00 AM,47.668677,-122.38313
S Charles St / Rainier Ave S,Rubbish Fire,2025 Dec 09 12:21:00 AM,47.594072,-122.31015
RAINIER AVE S / S FOREST ST,Illegal Burn,2025 Dec 09 12:03:00 AM,47.577526,-122.297522
4525 S Cloverdale St,Rubbish Fire,2025 Dec 08 11:08:00 PM,47.526119,-122.275337
1102 8th Ave,Auto Fire Alarm,2025 Dec 08 11:06:00 PM,47.608665,-122.329131
8498 Seaview Pl Nw,Rubbish Fire,2025 Dec 08 10:58:00 PM,47.69064,-122.401969
2807 S Mcclellan St,Auto Fire Alarm,2025 Dec 08 09:40:00 PM,47.578347,-122.296116
1430 2nd Ave,Illegal Burn,2025 Dec 08 09:16:00 PM,47.608586,-122.338264
6901 Martin Luther King Jr Way S,Auto Fire Alarm,2025 Dec 08 09:08:00 PM,47.540684,-122.283048
329 23rd Ave S,Auto Fire Alarm,2025 Dec 08 08:37:00 PM,47.600013,-122.302235
6922 38th Ave S,Auto Fire Alarm,2025 Dec 08 07:30:00 PM,47.540583,-122.284794
2244 1st Ave S,Illegal Burn,2025 Dec 08 06:45:00 PM,47.583511,-122.334199
840 Broadway,Auto Fire Alarm,2025 Dec 08 06:19:00 PM,47.609795,-122.320757
2517 Eastlake Ave E,Auto Fire Alarm,2025 Dec 08 05:22:00 PM,47.64222,-122.325888
800 Jefferson St,Auto Fire Alarm,2025 Dec 08 04:09:00 PM,47.604315,-122.32531
6622 62nd Ave Ne,Auto Fire Alarm,2025 Dec 08 04:06:00 PM,47.676663,-122.261469
4720 Rainier Ave S,Auto Fire Alarm,2025 Dec 08 12:47:00 PM,47.560482,-122.286803
9501 20th Ave Ne,Auto Fire Alarm,2025 Dec 08 12:21:00 PM,47.697578,-122.306813
415 1st Ave N,Auto Fire Alarm,2025 Dec 08 12:19:00 PM,47.62227,-122.355423
201 S Jackson St,Illegal Burn,2025 Dec 08 12:18:00 PM,47.599201,-122.331566
7919 Martin Luther King Jr Way S,Auto Fire Alarm,2025 Dec 08 12:00:00 PM,47.530929,-122.280781
14343 15th Ave Ne,Auto Fire Alarm,2025 Dec 08 11:42:00 AM,47.732803,-122.312733
800 Seneca St,Auto Fire Alarm,2025 Dec 08 11:33:00 AM,47.609372,-122.329777
1811 Eastlake Ave,Auto Fire Alarm,2025 Dec 08 10:39:00 AM,47.618002,-122.329182
201 S Jackson St,Auto Fire Alarm,2025 Dec 08 10:37:00 AM,47.599201,-122.331566
720 Seneca St,Illegal Burn,2025 Dec 08 10:25:00 AM,47.609088,-122.330457
860 Terry Ave N,Illegal Burn,2025 Dec 08 08:31:00 AM,47.626074,-122.337119
Denny Way / 1st Ave,Rubbish Fire,2025 Dec 08 08:00:00 AM,47.618602,-122.355453
15th Ave S / Golf Dr S,Illegal Burn,2025 Dec 08 07:55:00 AM,47.592905,-122.314872
801 Broadway,Auto Fire Alarm,2025 Dec 08 07:47:00 AM,47.609242,-122.320757
1100 Minor Ave,Rubbish Fire,2025 Dec 08 06:08:00 AM,47.610516,-122.324681
701 5th Ave,Auto Fire Alarm,2025 Dec 08 03:55:00 AM,47.604413,-122.329842
3925 E Harrison St,Illegal Burn,2025 Dec 08 01:31:00 AM,47.62268,-122.282861
3925 E Harrison St,Illegal Burn,2025 Dec 08 01:04:00 AM,47.62268,-122.282861
905 Cherry St,Illegal Burn,2025 Dec 08 12:34:00 AM,47.606293,-122.325346
800 Jefferson St,Auto Fire Alarm,2025 Dec 07 11:14:00 PM,47.604315,-122.32531
329 23rd Ave S,Auto Fire Alarm,2025 Dec 07 09:49:00 PM,47.600013,-122.302235
2620 California Ave Sw,Dumpster Fire,2025 Dec 07 09:44:00 PM,47.580803,-122.386561
924 N 143rd St,Auto Fire Alarm,2025 Dec 07 07:47:00 PM,47.732314,-122.346635
1200 12th Ave S,Auto Fire Alarm,2025 Dec 07 07:14:00 PM,47.592108,-122.317281
2537 15th Ave S,Auto Fire Alarm,2025 Dec 07 07:11:00 PM,47.580464,-122.313409
3217 W Smith St,Auto Fire Alarm,2025 Dec 07 06:46:00 PM,47.64053,-122.398531
3232 15th Ave W,Auto Fire Alarm,2025 Dec 07 06:41:00 PM,47.648861,-122.376367
6727 Rainier Ave S,Auto Fire Alarm,2025 Dec 07 06:10:00 PM,47.542238,-122.272642
609 Yesler Way,Auto Fire Alarm,2025 Dec 07 04:56:00 PM,47.601709,-122.326134
905 Cherry St,Rubbish Fire,2025 Dec 07 04:53:00 PM,47.606293,-122.325346
8502 Aurora Ave N,Dumpster Fire,2025 Dec 07 04:26:00 PM,47.69057,-122.344522
1701 12th Ave S,Auto Fire Alarm,2025 Dec 07 04:14:00 PM,47.588422,-122.317276
1029 S Jackson St,Auto Fire Alarm,2025 Dec 07 04:09:00 PM,47.599184,-122.319285
1900 5th Ave,Auto Fire Alarm,2025 Dec 07 03:40:00 PM,47.612958,-122.337873
4060 Spokane Ln Ne,Auto Fire Alarm,2025 Dec 07 03:29:00 PM,47.656376,-122.308205
2209 1st Ave,Auto Fire Alarm,2025 Dec 07 02:22:00 PM,47.612669,-122.345319
2233 Nw 58th St,Auto Fire Alarm,2025 Dec 07 01:13:00 PM,47.670913,-122.385203
2209 1st Ave,Auto Fire Alarm,2025 Dec 07 11:11:00 AM,47.612669,-122.345319
509 3rd Ave,Auto Fire Alarm,2025 Dec 07 11:07:00 AM,47.602114,-122.330809
4400 14th Ave Nw,Illegal Burn,2025 Dec 07 10:25:00 AM,47.660753,-122.373603
401 Alaskan Way S,Illegal Burn,2025 Dec 07 09:05:00 AM,47.599198,-122.335909
17th Ave Nw / Nw Market St,Illegal Burn,2025 Dec 07 08:59:00 AM,47.668671,-122.378884
937 N 96th St,Auto Fire Alarm,2025 Dec 07 08:40:00 AM,47.698721,-122.34681
500 Wall St,Auto Fire Alarm,2025 Dec 07 08:39:00 AM,47.617356,-122.345312
4800 SAND POINT WAY NE,Auto Fire Alarm,2025 Dec 07 01:29:00 AM,47.664275,-122.283475
2200 1st Ave,Illegal Burn,2025 Dec 07 01:15:00 AM,47.612606,-122.345213
1902 2nd Ave,Auto Fire Alarm,2025 Dec 06 10:44:00 PM,47.610972,-122.340465
4040 7th Ave Ne,Rubbish Fire,2025 Dec 06 09:56:00 PM,47.656213,-122.320852
4424 Shilshole Ave Nw,Illegal Burn,2025 Dec 06 09:34:00 PM,47.661023,-122.374427
3825 Bridge Way N,Auto Fire Alarm,2025 Dec 06 09:29:00 PM,47.653123,-122.34525
111 21st Ave E,Auto Fire Alarm,2025 Dec 06 09:07:00 PM,47.618674,-122.304766
Brooklyn Ave Ne / Ne 43rd St,Rubbish Fire,2025 Dec 06 08:31:00 PM,47.659809,-122.314324
1911 22nd Ave S,Auto Fire Alarm,2025 Dec 06 08:19:00 PM,47.586234,-122.304237
800 Seneca St,Illegal Burn,2025 Dec 06 08:10:00 PM,47.609372,-122.329777
924 N 143rd St,Auto Fire Alarm,2025 Dec 06 07:51:00 PM,47.732314,-122.346635
5801 Beacon Ave S,Auto Fire Alarm,2025 Dec 06 07:47:00 PM,47.551032,-122.302057
1911 22nd Ave S,Auto Fire Alarm,2025 Dec 06 07:28:00 PM,47.586234,-122.304237
420 Boylston Ave E,Auto Fire Alarm,2025 Dec 06 07:11:00 PM,47.62222,-122.323073
15th Ave Nw / Nw 60th St,Rubbish Fire,2025 Dec 06 07:06:00 PM,47.67236,-122.376211
3005 Rainier Ave S,Illegal Burn,2025 Dec 06 06:59:00 PM,47.576698,-122.296889
405 Martin Luther King Jr Way S,Rubbish Fire,2025 Dec 06 06:38:00 PM,47.599173,-122.297417
Western Ave / Blanchard St,Rubbish Fire,2025 Dec 06 06:34:00 PM,47.611942,-122.346072
924 N 143rd St,Auto Fire Alarm,2025 Dec 06 05:54:00 PM,47.732314,-122.346635
1911 22nd Ave S,Auto Fire Alarm,2025 Dec 06 05:12:00 PM,47.586234,-122.304237
10th Ave S / S Jackson St,Rubbish Fire,2025 Dec 06 05:00:00 PM,47.599184,-122.319639
3700 S Alaska St,Rubbish Fire,2025 Dec 06 04:40:00 PM,47.560748,-122.287027
7930 Rainier Ave S,Auto Fire Alarm,2025 Dec 06 03:43:00 PM,47.530717,-122.269989
5849 15th Ave Ne,Illegal Burn,2025 Dec 06 12:12:00 PM,47.671822,-122.311903
10533 35th Ave Ne,Illegal Burn,2025 Dec 06 11:58:00 AM,47.705015,-122.290868
36th Ave Ne / Ne 115th St,Illegal Burn,2025 Dec 06 11:19:00 AM,47.711941,-122.289309
401 9th Ave N,Auto Fire Alarm,2025 Dec 06 10:50:00 AM,47.622046,-122.33976
2020 Terry Ave,Auto Fire Alarm,2025 Dec 06 10:13:00 AM,47.617198,-122.335129
306 6th Ave S,Auto Fire Alarm,2025 Dec 06 09:52:00 AM,47.599981,-122.326357
400 WESTLAKE AVE N,Auto Fire Alarm,2025 Dec 06 09:46:00 AM,47.622041,-122.338456
14th Ave Nw / Nw 46th St,Rubbish Fire,2025 Dec 06 08:45:00 AM,47.662202,-122.373595
901 6th Ave,Auto Fire Alarm,2025 Dec 06 08:11:00 AM,47.606302,-122.330039
7136 38th Ave S,Auto Fire Alarm,2025 Dec 06 07:47:00 AM,47.538545,-122.284737
Malden Ave E / E Thomas St,Illegal Burn,2025 Dec 06 04:42:00 AM,47.621127,-122.313663
313 1st Ave S,Rubbish Fire,2025 Dec 06 04:19:00 AM,47.599933,-122.334185
140 Broadway E,Rubbish Fire,2025 Dec 06 04:16:00 AM,47.619205,-122.320862
937 N 96th St,Auto Fire Alarm,2025 Dec 06 02:48:00 AM,47.698721,-122.34681
171 12th Ave,Fire in Building,2025 Dec 06 02:32:00 AM,47.603031,-122.316782
325 9th Ave,Car Fire,2025 Dec 06 01:02:00 AM,47.603586,-122.322948
6000 16th Ave Sw,Auto Fire Alarm,2025 Dec 06 12:22:00 AM,47.548872,-122.354833
5801 Beacon Ave S,Auto Fire Alarm,2025 Dec 06 12:11:00 AM,47.551032,-122.302057
619 3rd Ave,Auto Fire Alarm,2025 Dec 05 11:55:00 PM,47.6029,-122.331529
6922 38th Ave S,Auto Fire Alarm,2025 Dec 05 11:43:00 PM,47.540583,-122.284794
210 2nd Ave Et S,Illegal Burn,2025 Dec 05 11:26:00 PM,47.599272,-122.329741
114 James St,Rubbish Fire,2025 Dec 05 11:25:00 PM,47.601806,-122.333703
109 Yesler Way,Rubbish Fire,2025 Dec 05 10:24:00 PM,47.601721,-122.333508
13201 Aurora Ave N,Rubbish Fire,2025 Dec 05 10:05:00 PM,47.724671,-122.344993
8854 Delridge Way Sw,Auto Fire Alarm,2025 Dec 05 09:12:00 PM,47.523347,-122.36049
800 Jefferson St,Auto Fire Alarm,2025 Dec 05 08:28:00 PM,47.604315,-122.32531
401 Ne Northlake Way,Auto Fire Alarm,2025 Dec 05 07:32:00 PM,47.653815,-122.324577
1191 2nd Ave,Auto Fire Alarm,2025 Dec 05 07:28:00 PM,47.606528,-122.336381
1250 1st Ave S,Auto Fire Alarm,2025 Dec 05 07:24:00 PM,47.592049,-122.334195
12002 Roosevelt Way Ne,Auto Fire Alarm,2025 Dec 05 07:23:00 PM,47.71583,-122.318021
1512 Boylston Ave,Illegal Burn,2025 Dec 05 06:17:00 PM,47.6142,-122.323403
1660 S Columbian Way,Auto Fire Alarm,2025 Dec 05 06:09:00 PM,47.561845,-122.310824
1311 S Massachusetts St,Auto Fire Alarm,2025 Dec 05 05:50:00 PM,47.588437,-122.315855
3924 Montlake Blvd Ne,Auto Fire Alarm,2025 Dec 05 05:36:00 PM,47.652514,-122.303103
Rainier Ave S / S Charlestown St,Car Fire,2025 Dec 05 05:23:00 PM,47.569771,-122.290699
3601 Sw Barton St,Auto Fire Alarm,2025 Dec 05 04:50:00 PM,47.521079,-122.3781
6922 38th Ave S,Auto Fire Alarm,2025 Dec 05 04:50:00 PM,47.540583,-122.284794
5000 East Marginal Way S,Auto Fire Alarm,2025 Dec 05 04:32:00 PM,47.557413,-122.339111
3309 6th Ave W,Auto Fire Alarm,2025 Dec 05 04:13:00 PM,47.649979,-122.364834
600 N 130th St,Auto Fire Alarm,2025 Dec 05 03:46:00 PM,47.723223,-122.351624
616 1st Ave,Auto Fire Alarm,2025 Dec 05 03:39:00 PM,47.601853,-122.334178
202 6th Ave S,Auto Fire Alarm,2025 Dec 05 01:49:00 PM,47.600854,-122.326354
5000 East Marginal Way S,Auto Fire Alarm,2025 Dec 05 01:49:00 PM,47.557413,-122.339111
800 Seneca St,Illegal Burn,2025 Dec 05 01:48:00 PM,47.609372,-122.329777
1010 E Republican St,Auto Fire Alarm,2025 Dec 05 01:44:00 PM,47.623124,-122.319688
924 N 143rd St,Auto Fire Alarm,2025 Dec 05 12:27:00 PM,47.732314,-122.346635
120 10th Ave E,Auto Fire Alarm,2025 Dec 05 11:36:00 AM,47.618975,-122.319524
2717 Dexter Ave N,Auto Fire Alarm,2025 Dec 05 11:33:00 AM,47.644374,-122.346913
9th Ave Ne / Ne 47th St,Rubbish Fire,2025 Dec 05 11:21:00 AM,47.663125,-122.318398
5610 Airport Way S,Rubbish Fire,2025 Dec 05 09:45:00 AM,47.552008,-122.319668
1531 Western Ave,Auto Fire Alarm,2025 Dec 05 09:19:00 AM,47.608661,-122.341402
1000 4th Ave,Rubbish Fire,2025 Dec 05 09:16:00 AM,47.606088,-122.332909
1029 S Jackson St,Illegal Burn,2025 Dec 05 09:10:00 AM,47.599184,-122.319285
2209 1ST AVE,Auto Fire Alarm,2025 Dec 05 08:57:00 AM,47.612669,-122.345319
920 Ne 63rd St,Auto Fire Alarm,2025 Dec 05 08:06:00 AM,47.674162,-122.318431
515 2nd Ave,Illegal Burn,2025 Dec 05 07:54:00 AM,47.601803,-122.33206
3400 E Harrison St,Auto Fire Alarm,2025 Dec 05 07:15:00 AM,47.62253,-122.289162
8th Ave S / S Massachusetts St,RV Fire,2025 Dec 05 07:04:00 AM,47.588226,-122.323498
2301 E Union St,Auto Fire Alarm,2025 Dec 05 06:56:00 AM,47.612941,-122.302697
WARREN AVE N / JOHN ST,Rubbish Fire,2025 Dec 05 06:32:00 AM,47.619764,-122.354138
9818 5th Ave Ne,Auto Fire Alarm,2025 Dec 05 05:16:00 AM,47.700495,-122.323118
429 2nd Ave W,Auto Fire Alarm,2025 Dec 05 02:34:00 AM,47.622452,-122.359338
3513 SW ALASKA ST,Rubbish Fire,2025 Dec 05 02:18:00 AM,47.561066,-122.376367
321 10th Ave S,Rubbish Fire,2025 Dec 05 01:48:00 AM,47.59965,-122.319633
1215 Dexter Ave N,Rubbish Fire,2025 Dec 05 01:17:00 AM,47.629844,-122.342303
515 E Denny Way,Rubbish Fire,2025 Dec 04 11:40:00 PM,47.618487,-122.32509
Republican St / 1st Ave N,Rubbish Fire,2025 Dec 04 11:08:00 PM,47.623272,-122.355415
1300 Hubbell Pl,Auto Fire Alarm,2025 Dec 04 10:36:00 PM,47.610249,-122.330769
2104 Ne 45th St,Auto Fire Alarm,2025 Dec 04 10:00:00 PM,47.661303,-122.305045
SW SPOKANE ST / SPOKANE TURN RD,Illegal Burn,2025 Dec 04 08:55:00 PM,47.571627,-122.359353
2208 15th Ave W,Auto Fire Alarm,2025 Dec 04 08:42:00 PM,47.638695,-122.376149
4th Ave S / S Washington St,Rubbish Fire,2025 Dec 04 08:14:00 PM,47.600875,-122.328963
3400 E Harrison St,Auto Fire Alarm,2025 Dec 04 07:41:00 PM,47.62253,-122.289162
4th Ave S / S Washington St,Rubbish Fire,2025 Dec 04 07:38:00 PM,47.600875,-122.328963
13023 Greenwood Ave N,Auto Fire Alarm,2025 Dec 04 07:21:00 PM,47.723436,-122.355547
3400 E Harrison St,Auto Fire Alarm,2025 Dec 04 07:05:00 PM,47.62253,-122.289162
2716 Elliott Ave,Auto Fire Alarm,2025 Dec 04 06:52:00 PM,47.614557,-122.352479
108 5th Ave S,Illegal Burn,2025 Dec 04 04:40:00 PM,47.601618,-122.327656
6940 62ND AVE NE,Auto Fire Alarm,2025 Dec 04 03:04:00 PM,47.678821,-122.262227
660 W Ewing St,Auto Fire Alarm,2025 Dec 04 02:58:00 PM,47.652523,-122.365122
100 23rd Ave S,Auto Fire Alarm,2025 Dec 04 02:06:00 PM,47.601667,-122.302339
1502 E Yesler Way,Auto Fire Alarm,2025 Dec 04 01:53:00 PM,47.601686,-122.31285
2950 S Dakota St,Auto Fire Alarm,2025 Dec 04 01:38:00 PM,47.566289,-122.296571
1410 Ne 66th St,Auto Fire Alarm,2025 Dec 04 11:59:00 AM,47.676516,-122.313014
607 3rd Ave,Auto Fire Alarm,2025 Dec 04 11:47:00 AM,47.602813,-122.331449
1536 N 115th St,Auto Fire Alarm,2025 Dec 04 10:48:00 AM,47.712306,-122.339738
2727 W Manor Pl,Auto Fire Alarm,2025 Dec 04 10:34:00 AM,47.652955,-122.391732
1530 N 115th St,Auto Fire Alarm,2025 Dec 04 10:19:00 AM,47.712306,-122.339799
1350 N 34th St,Auto Fire Alarm,2025 Dec 04 09:22:00 AM,47.648468,-122.342302
1000 8th Ave,Auto Fire Alarm,2025 Dec 04 08:35:00 AM,47.607945,-122.328471
4905 Aurora Ave N,Auto Fire Alarm,2025 Dec 04 06:17:00 AM,47.664979,-122.347375
5444 Delridge Way Sw,Auto Fire Alarm,2025 Dec 04 05:32:00 AM,47.553321,-122.362969
Broadway E / E Thomas St,Illegal Burn,2025 Dec 04 04:50:00 AM,47.621076,-122.320892
1000 8th Ave,Auto Fire Alarm,2025 Dec 04 04:02:00 AM,47.607945,-122.328471
924 N 143rd St,Auto Fire Alarm,2025 Dec 04 02:59:00 AM,47.732314,-122.346635
705 Pike St,Auto Fire Alarm,2025 Dec 04 02:10:00 AM,47.61163,-122.333297
Broadway E / E Harrison St,Rubbish Fire,2025 Dec 04 01:48:00 AM,47.621988,-122.320906
315 1ST AVE N,Dumpster Fire,2025 Dec 04 12:58:00 AM,47.621103,-122.355433
12th Ave / E Pine St,Rubbish Fire,2025 Dec 04 12:01:00 AM,47.615264,-122.316854
10004 S Gazelle St,Illegal Burn,2025 Dec 03 09:00:00 PM,47.512442,-122.27005
5019 Roosevelt Way Ne,Auto Fire Alarm,2025 Dec 03 08:42:00 PM,47.665073,-122.317402
2651 Nw 56th St,Auto Fire Alarm,2025 Dec 03 08:41:00 PM,47.669461,-122.390835
1007 Spring St,Illegal Burn,2025 Dec 03 07:11:00 PM,47.60962,-122.326823
3516 S Juneau St,Auto Fire Alarm,2025 Dec 03 07:03:00 PM,47.549771,-122.288767
8849 Nesbit Ave N,Illegal Burn,2025 Dec 03 06:55:00 PM,47.692811,-122.343473
1302 Ne Campus Pkwy,Auto Fire Alarm,2025 Dec 03 06:04:00 PM,47.656225,-122.314395
11111 Aurora Ave N,Auto Fire Alarm,2025 Dec 03 05:33:00 PM,47.709472,-122.344767
6860 East Green Lake Way N,Auto Fire Alarm,2025 Dec 03 05:26:00 PM,47.678461,-122.327093
2209 1st Ave,Auto Fire Alarm,2025 Dec 03 04:46:00 PM,47.612669,-122.345319
Morse Ave S / S Hanford St,Illegal Burn,2025 Dec 03 04:09:00 PM,47.575082,-122.298666
11506 Stone Ave N,Auto Fire Alarm,2025 Dec 03 04:09:00 PM,47.712367,-122.342125
1319 N 40TH ST,Car Fire,2025 Dec 03 02:06:00 PM,47.655434,-122.342152
1021 Columbia St,Auto Fire Alarm,2025 Dec 03 12:21:00 PM,47.607546,-122.324708
700 Seneca St,Illegal Burn,2025 Dec 03 11:11:00 AM,47.609015,-122.330631
4507 3rd Ave Nw,Car Fire,2025 Dec 03 09:45:00 AM,47.661513,-122.36079
1410 E John St,Illegal Burn,2025 Dec 03 07:54:00 AM,47.61996,-122.313736
1264 S King St,Illegal Burn,2025 Dec 03 07:49:00 AM,47.598336,-122.315993
Alaskan Way S / S Main St,Illegal Burn,2025 Dec 03 07:30:00 AM,47.600046,-122.335639
2901 27th Ave S,Illegal Burn,2025 Dec 03 07:14:00 AM,47.577518,-122.298263
1730 Minor Ave,Auto Fire Alarm,2025 Dec 03 06:58:00 AM,47.616199,-122.329882
3520 26th Ave Sw,Auto Fire Alarm,2025 Dec 03 06:54:00 AM,47.572604,-122.365002
1280 Harrison St,Auto Fire Alarm,2025 Dec 03 06:20:00 AM,47.62197,-122.33091
10616 Meridian Ave N,Auto Fire Alarm,2025 Dec 03 04:57:00 AM,47.706082,-122.333948
Roosevelt Way Ne / Ne Ravenna Blvd,Rubbish Fire,2025 Dec 03 04:53:00 AM,47.672015,-122.317363
1423 Nw Market St,Auto Fire Alarm,2025 Dec 03 04:37:00 AM,47.668665,-122.374178
1100 N 115th St,Auto Fire Alarm,2025 Dec 03 02:35:00 AM,47.712319,-122.344814
14th Ave E / E Thomas St,Illegal Burn,2025 Dec 03 02:10:00 AM,47.62112,-122.314686
Ravenna Pl Ne / Ne 55th St,Rubbish Fire,2025 Dec 03 01:48:00 AM,47.668145,-122.302917
6420 California Ave Sw,Auto Fire Alarm,2025 Dec 03 01:39:00 AM,47.545489,-122.387208
4th Ave S / S Lander St,Illegal Burn,2025 Dec 03 01:37:00 AM,47.579809,-122.329057
1118 5TH AVE,Rubbish Fire,2025 Dec 03 01:19:00 AM,47.60739,-122.332564
518 S King St,Dumpster Fire,2025 Dec 03 01:04:00 AM,47.598356,-122.327431
2024 3rd Ave,Illegal Burn,2025 Dec 03 12:54:00 AM,47.612578,-122.341197
937 N 96th St,Auto Fire Alarm,2025 Dec 03 12:05:00 AM,47.698721,-122.34681
551 Elliott Ave W,Auto Fire Alarm,2025 Dec 02 11:54:00 PM,47.624155,-122.365135
200 Summit Ave E,Illegal Burn,2025 Dec 02 11:17:00 PM,47.619651,-122.325294
2807 S Mcclellan St,Auto Fire Alarm,2025 Dec 02 10:05:00 PM,47.578347,-122.296116
9750 3rd Ave Ne,Auto Fire Alarm,2025 Dec 02 09:01:00 PM,47.699518,-122.325773
5963 Corson Ave S,Dumpster Fire,2025 Dec 02 08:57:00 PM,47.548983,-122.320994
24th Ave Nw / Nw 62nd St,Illegal Burn,2025 Dec 02 08:31:00 PM,47.673831,-122.387586
400 19th Ave E,Illegal Burn,2025 Dec 02 08:19:00 PM,47.622065,-122.307324
3601 Sw Barton St,Auto Fire Alarm,2025 Dec 02 07:50:00 PM,47.521079,-122.3781
600 N 130th St,Auto Fire Alarm,2025 Dec 02 07:20:00 PM,47.723223,-122.351624
1315 Ne Campus Pkwy,Auto Fire Alarm,2025 Dec 02 07:10:00 PM,47.655998,-122.31426
Pike St / Melrose Ave,Illegal Burn,2025 Dec 02 07:07:00 PM,47.61393,-122.327805
3601 Sw Barton St,Auto Fire Alarm,2025 Dec 02 06:54:00 PM,47.521079,-122.3781
1st Ave / Spring St,Rubbish Fire,2025 Dec 02 06:13:00 PM,47.605408,-122.336891
114 James St,Rubbish Fire,2025 Dec 02 05:54:00 PM,47.601806,-122.333703
3600 Stone Way N,Auto Fire Alarm,2025 Dec 02 05:18:00 PM,47.650534,-122.342678
2505 Airport Way S,Auto Fire Alarm,2025 Dec 02 05:14:00 PM,47.580886,-122.321397
2601 W Marina Pl,Auto Fire Alarm,2025 Dec 02 05:07:00 PM,47.63129,-122.390031
551 Elliott Ave W,Auto Fire Alarm,2025 Dec 02 04:06:00 PM,47.624155,-122.365135
801 SPRING ST,Auto Fire Alarm,2025 Dec 02 04:00:00 PM,47.608663,-122.329113
35th Ave Sw / Sw Avalon Way,Illegal Burn,2025 Dec 02 03:45:00 PM,47.564077,-122.376189
509 3rd Ave,Auto Fire Alarm,2025 Dec 02 03:38:00 PM,47.602114,-122.330809
E OLIVE ST / BELMONT AVE,Illegal Burn,2025 Dec 02 03:06:00 PM,47.616348,-122.324487
7701 14th Ave S,Auto Fire Alarm,2025 Dec 02 02:21:00 PM,47.534513,-122.314855
8500 20th Ave Ne,Auto Fire Alarm,2025 Dec 02 02:17:00 PM,47.690303,-122.306854
1818 Ne 45th St,Auto Fire Alarm,2025 Dec 02 01:18:00 PM,47.661257,-122.308174
4831 35th Ave Sw,Auto Fire Alarm,2025 Dec 02 12:18:00 PM,47.558988,-122.376234
4555 Roosevelt Way Ne,Auto Fire Alarm,2025 Dec 02 11:06:00 AM,47.661775,-122.317464
204 Ne 94th St,Auto Fire Alarm,2025 Dec 02 10:25:00 AM,47.69681,-122.327101
1107 E Madison St,Auto Fire Alarm,2025 Dec 02 09:36:00 AM,47.612309,-122.318031
1311 S Massachusetts St,Auto Fire Alarm,2025 Dec 02 09:29:00 AM,47.588437,-122.315855
1616 Ne 50th St,Auto Fire Alarm,2025 Dec 02 09:11:00 AM,47.664883,-122.31061
424 Minor Ave N,Auto Fire Alarm,2025 Dec 02 08:56:00 AM,47.622242,-122.332995
800 Jefferson St,Auto Fire Alarm,2025 Dec 02 08:55:00 AM,47.604315,-122.32531
4801 24th Ave Ne,Auto Fire Alarm,2025 Dec 02 08:52:00 AM,47.66378,-122.301734
2901 Rainier Ave S,Illegal Burn,2025 Dec 02 08:01:00 AM,47.577518,-122.297516
1711 23rd Ave S,Auto Fire Alarm,2025 Dec 02 05:04:00 AM,47.58821,-122.302596
912 N 93rd St,Rubbish Fire,2025 Dec 02 04:15:00 AM,47.696365,-122.347123
1911 22nd Ave S,Auto Fire Alarm,2025 Dec 02 02:13:00 AM,47.586234,-122.304237
9455 27th Ave Sw,Auto Fire Alarm,2025 Dec 02 01:11:00 AM,47.518178,-122.367277
2721 4th Ave,Illegal Burn,2025 Dec 02 01:04:00 AM,47.617908,-122.34823
551 Elliott Ave W,Auto Fire Alarm,2025 Dec 01 11:21:00 PM,47.624155,-122.365135
1420 Western Ave,Auto Fire Alarm,2025 Dec 01 11:15:00 PM,47.607557,-122.340392
403 16th Ave E,Illegal Burn,2025 Dec 01 11:00:00 PM,47.622105,-122.311357
200 Belmont Ave E,Auto Fire Alarm,2025 Dec 01 10:52:00 PM,47.619666,-122.324011
400 19TH AVE E,Illegal Burn,2025 Dec 01 10:32:00 PM,47.622065,-122.307324
8th Ave S / S King St,Rubbish Fire,2025 Dec 01 10:02:00 PM,47.598348,-122.322448
8th Ave Ne / Ne 66th St,Rubbish Fire,2025 Dec 01 09:48:00 PM,47.676642,-122.320082
425 Pike St,Illegal Burn,2025 Dec 01 09:15:00 PM,47.610332,-122.3364
Nw 88th St / 9th Ave Nw,Illegal Burn,2025 Dec 01 07:40:00 PM,47.692788,-122.368336
910 8th Ave,Auto Fire Alarm,2025 Dec 01 07:25:00 PM,47.607297,-122.327878
914 E Jefferson St,Auto Fire Alarm,2025 Dec 01 07:02:00 PM,47.606212,-122.320559
1212 Queen Anne Ave N,Auto Fire Alarm,2025 Dec 01 05:25:00 PM,47.62967,-122.356621
1st Ave S / S Orcas St,Illegal Burn,2025 Dec 01 03:28:00 PM,47.551903,-122.334216
3rd Ave S / S Jackson St,Illegal Burn,2025 Dec 01 01:45:00 PM,47.599199,-122.330276
601 Pine St,Auto Fire Alarm,2025 Dec 01 01:17:00 PM,47.612141,-122.335362
418 14th Ave E,Auto Fire Alarm,2025 Dec 01 12:39:00 PM,47.622155,-122.314669
223 Yesler Way,Rubbish Fire,2025 Dec 01 12:24:00 PM,47.601718,-122.331581
424 Minor Ave N,Auto Fire Alarm,2025 Dec 01 11:46:00 AM,47.622242,-122.332995
1902 2nd Ave,Auto Fire Alarm,2025 Dec 01 11:05:00 AM,47.610972,-122.340465
4585 Texas Way W,Auto Fire Alarm,2025 Dec 01 10:57:00 AM,47.663502,-122.405592
4524 19th Ave Ne,Auto Fire Alarm,2025 Dec 01 10:20:00 AM,47.661466,-122.307242
801 Dexter Ave N,Auto Fire Alarm,2025 Dec 01 09:58:00 AM,47.626261,-122.342334
110 10th Ave S,Auto Fire Alarm,2025 Dec 01 09:53:00 AM,47.601612,-122.319581
35th Ave Sw / Sw Alaska St,Rubbish Fire,2025 Dec 01 09:46:00 AM,47.561066,-122.376216
65 MARION ST,Rubbish Fire,2025 Dec 01 09:27:00 AM,47.603323,-122.33716
2101 S Jackson St,Auto Fire Alarm,2025 Dec 01 08:43:00 AM,47.599268,-122.304323
7017 Beach Dr Sw,Illegal Burn,2025 Dec 01 08:32:00 AM,47.540543,-122.396439
7727 28th Ave Ne,Auto Fire Alarm,2025 Dec 01 08:22:00 AM,47.685769,-122.297346
5228 15th Ave Ne,Auto Fire Alarm,2025 Dec 01 07:03:00 AM,47.666621,-122.311913
GOLF DR S / S CHARLES ST,Rubbish Fire,2025 Dec 01 06:53:00 AM,47.594282,-122.316577
S Dearborn St / Poplar Pl S,Illegal Burn,2025 Dec 01 06:50:00 AM,47.595814,-122.312821
1601 S Lane St,Rubbish Fire,2025 Dec 01 06:22:00 AM,47.59665,-122.311573
Denny Way / Cedar St,Rubbish Fire,2025 Dec 01 05:57:00 AM,47.618571,-122.347621
1430 2nd Ave,Illegal Burn,2025 Dec 01 04:04:00 AM,47.608586,-122.338264
5311 Shilshole Ave Nw,Illegal Burn,2025 Dec 01 03:38:00 AM,47.665971,-122.384151
6922 38th Ave S,Auto Fire Alarm,2025 Dec 01 02:37:00 AM,47.540583,-122.284794
707 Terry Ave,Auto Fire Alarm,2025 Nov 30 10:55:00 PM,47.606777,-122.324334
2104 Ne 45th St,Auto Fire Alarm,2025 Nov 30 10:04:00 PM,47.661303,-122.305045
2870 S Hanford St,Auto Fire Alarm,2025 Nov 30 09:41:00 PM,47.574853,-122.295888
3rd Ave / Seneca St,Illegal Burn,2025 Nov 30 08:32:00 PM,47.60705,-122.335324
4451 14th Ave Nw,Illegal Burn,2025 Nov 30 07:21:00 PM,47.66112,-122.3736
715 8th Ave,Auto Fire Alarm,2025 Nov 30 06:50:00 PM,47.605907,-122.326606
700 5th Ave N,Auto Fire Alarm,2025 Nov 30 06:23:00 PM,47.625423,-122.347565
25th Ave E / E Madison St,Rubbish Fire,2025 Nov 30 06:11:00 PM,47.620978,-122.299873
1902 2nd Ave,Auto Fire Alarm,2025 Nov 30 05:22:00 PM,47.610972,-122.340465
5440 Leary Ave Nw,Auto Fire Alarm,2025 Nov 30 05:12:00 PM,47.667645,-122.383275
7th Ave S / S Lucile St,Rubbish Fire,2025 Nov 30 04:06:00 PM,47.553368,-122.323909
710 Cherry St,Auto Fire Alarm,2025 Nov 30 03:55:00 PM,47.605387,-122.327511
10515 35TH AVE NE,Illegal Burn,2025 Nov 30 03:54:00 PM,47.704885,-122.290872
7345 Delridge Way Sw,Illegal Burn,2025 Nov 30 03:32:00 PM,47.536381,-122.361331
2100 N Northgate Way,Rubbish Fire,2025 Nov 30 03:19:00 PM,47.708663,-122.333993
171 12th Ave,Auto Fire Alarm,2025 Nov 30 03:08:00 PM,47.603031,-122.316782
1100 Minor Ave,Auto Fire Alarm,2025 Nov 30 02:37:00 PM,47.610516,-122.324681
1100 N 115th St,Rubbish Fire,2025 Nov 30 12:34:00 PM,47.712319,-122.344814
2050 S Jackson St,Rubbish Fire,2025 Nov 30 12:17:00 PM,47.599266,-122.304578
5049 30th Ave S,Illegal Burn,2025 Nov 30 11:38:00 AM,47.556712,-122.294178
14396 30th Ave Ne,Auto Fire Alarm,2025 Nov 30 11:30:00 AM,47.732881,-122.296531
830 4th Ave S,Auto Fire Alarm,2025 Nov 30 11:17:00 AM,47.596157,-122.329046
14396 30th Ave Ne,Auto Fire Alarm,2025 Nov 30 11:07:00 AM,47.732881,-122.296531
1001 Sturgus Ave S,Illegal Burn,2025 Nov 30 09:07:00 AM,47.593807,-122.314188
130 S Kenyon St,Dumpster Fire,2025 Nov 30 09:06:00 AM,47.532034,-122.333373
Maynard Al S / S King St,Illegal Burn,2025 Nov 30 07:10:00 AM,47.598351,-122.324404
1323 E Pine St,Auto Fire Alarm,2025 Nov 30 06:52:00 AM,47.615275,-122.315242
Summit Ave / Seneca St,Illegal Burn,2025 Nov 30 06:50:00 AM,47.611694,-122.324223
28th Ave Nw / Nw Market St,Rubbish Fire,2025 Nov 30 06:49:00 AM,47.668655,-122.392858
2929 27TH AVE S,Illegal Burn,2025 Nov 30 06:41:00 AM,47.577283,-122.298263
4536 Brooklyn Ave Ne,Rubbish Fire,2025 Nov 30 06:32:00 AM,47.661599,-122.314278
1102 8th Ave,Auto Fire Alarm,2025 Nov 30 05:37:00 AM,47.608665,-122.329131
Princeton Ave Ne / Sand Point Way Ne,Rubbish Fire,2025 Nov 30 05:35:00 AM,47.668297,-122.275798
1700 E Madison St,Dumpster Fire,2025 Nov 30 05:27:00 AM,47.61559,-122.310151
115 Broadway E,Dumpster Fire,2025 Nov 30 05:24:00 AM,47.618907,-122.320857
Utah Ave S / S Stacy St,Rubbish Fire,2025 Nov 30 05:23:00 AM,47.581895,-122.335125
2020 Terry Ave,Auto Fire Alarm,2025 Nov 30 03:04:00 AM,47.617198,-122.335129
1765 22nd Ave S,Auto Fire Alarm,2025 Nov 30 02:39:00 AM,47.587474,-122.303859
Wabash Ave S / S Rose St,Rubbish Fire,2025 Nov 30 12:34:00 AM,47.529137,-122.269462
1900 25th Ave S,Illegal Burn,2025 Nov 30 12:30:00 AM,47.586314,-122.300315
325 9th Ave,Auto Fire Alarm,2025 Nov 30 12:10:00 AM,47.603586,-122.322948
724 33rd Ave,Illegal Burn,2025 Nov 29 10:46:00 PM,47.60826,-122.290472
800 Jefferson St,Auto Fire Alarm,2025 Nov 29 10:31:00 PM,47.604315,-122.32531
1520 4th Ave,Illegal Burn,2025 Nov 29 09:44:00 PM,47.610393,-122.336847
1014 Boylston Ave,Rubbish Fire,2025 Nov 29 09:21:00 PM,47.610825,-122.321896
6339 34th Ave Sw,Auto Fire Alarm,2025 Nov 29 08:35:00 PM,47.546219,-122.375056
Columbia St / 2nd Ave,Rubbish Fire,2025 Nov 29 08:13:00 PM,47.603733,-122.333825
510 Minor Ave N,Auto Fire Alarm,2025 Nov 29 07:14:00 PM,47.623222,-122.333001
100 Mercer St,Auto Fire Alarm,2025 Nov 29 06:40:00 PM,47.624578,-122.355404
650 3rd Ave N,Auto Fire Alarm,2025 Nov 29 05:00:00 PM,47.625004,-122.351483
305 Harrison St,Auto Fire Alarm,2025 Nov 29 04:56:00 PM,47.622089,-122.351371
3501 Rainier Ave S,Auto Fire Alarm,2025 Nov 29 01:49:00 PM,47.571853,-122.293193
N 105th St / Aurora Ave N,Rubbish Fire,2025 Nov 29 01:13:00 PM,47.705051,-122.344694
721 S Lane St,Auto Fire Alarm,2025 Nov 29 01:08:00 PM,47.596672,-122.32348
6732 40th Ave S,Auto Fire Alarm,2025 Nov 29 01:06:00 PM,47.542161,-122.282632
S ALBRO PL / CORGIAT DR S,Brush Fire,2025 Nov 29 12:36:00 PM,47.548167,-122.312515
SB I5 EXP AT SHIP CANAL,Car Fire Freeway,2025 Nov 29 11:36:00 AM,47.656039,-122.322482
201 19th Ave,Auto Fire Alarm,2025 Nov 29 11:28:00 AM,47.603514,-122.307659
916 N 143rd St,Auto Fire Alarm,2025 Nov 29 11:24:00 AM,47.732314,-122.347028
211 Dexter Ave N,Auto Fire Alarm,2025 Nov 29 10:29:00 AM,47.619839,-122.342391
Yesler Way / Prefontaine Pl S,Illegal Burn,2025 Nov 29 09:01:00 AM,47.601716,-122.330265
821 9th Ave,Illegal Burn,2025 Nov 29 07:12:00 AM,47.607128,-122.326189
1112 4th Ave,Auto Fire Alarm,2025 Nov 29 05:31:00 AM,47.606881,-122.333635
4501 9th Ave Nw,Illegal Burn,2025 Nov 29 05:29:00 AM,47.661467,-122.368616
10507 Aurora Ave N,Auto Fire Alarm,2025 Nov 29 04:00:00 AM,47.705096,-122.344695
4701 University Way Ne,Illegal Burn,2025 Nov 29 03:59:00 AM,47.663092,-122.313102
1414 Ne 42nd St,Auto Fire Alarm,2025 Nov 29 03:31:00 AM,47.658303,-122.312213
2024 3rd Ave,Illegal Burn,2025 Nov 29 02:35:00 AM,47.612578,-122.341197
8347 14th Ave Nw,Illegal Burn,2025 Nov 29 01:52:00 AM,47.689167,-122.3741
2026 Nw Market St,Auto Fire Alarm,2025 Nov 29 01:04:00 AM,47.668677,-122.383193
937 N 96th St,Fire in Building,2025 Nov 29 12:33:00 AM,47.698721,-122.34681
1103 16th Ave,Auto Fire Alarm,2025 Nov 28 11:05:00 PM,47.611553,-122.311479
412 25th Ave S,Auto Fire Alarm,2025 Nov 28 10:58:00 PM,47.599125,-122.299888
916 N 143rd St,Rubbish Fire,2025 Nov 28 10:43:00 PM,47.732314,-122.347028
16th Ave Sw / Sw Barton St,Illegal Burn,2025 Nov 28 10:39:00 PM,47.521033,-122.355125
35th Ave Sw / Sw Edmunds St,Illegal Burn,2025 Nov 28 09:25:00 PM,47.559277,-122.376232
